{
  "1" : {
    "id" : 1,
    "name" : "Akvarij",
    "address" : "Ulica heroja Staneta 24",
    "lat" : 46.564961,
    "lon" : 15.649886
  },
  "2" : {
    "id" : 2,
    "name" : "Stražun",
    "address" : "Belokranjska ulica 17",
    "lat" : 46.542928,
    "lon" : 15.654167
  },
  "3" : {
    "id" : 3,
    "name" : "Stražun",
    "address" : "Belokranjska ulica 12",
    "lat" : 46.542973,
    "lon" : 15.654071
  },
  "4" : {
    "id" : 4,
    "name" : "Belokranjska ulica 10",
    "address" : "Belokranjska ulica 10",
    "lat" : 46.543812,
    "lon" : 15.65258
  },
  "5" : {
    "id" : 5,
    "name" : "Betnavska - Focheva",
    "address" : "Betnavska cesta 52",
    "lat" : 46.546179,
    "lon" : 15.639123
  },
  "6" : {
    "id" : 6,
    "name" : "Betnavska - Focheva",
    "address" : "Betnavska cesta 35",
    "lat" : 46.546786,
    "lon" : 15.639532
  },
  "7" : {
    "id" : 7,
    "name" : "Betnavska - Goriška",
    "address" : "Betnavska cesta 118",
    "lat" : 46.540409,
    "lon" : 15.637128
  },
  "8" : {
    "id" : 8,
    "name" : "Betnavska - Goriška",
    "address" : "Goriška ulica 8",
    "lat" : 46.540358,
    "lon" : 15.637294
  },
  "9" : {
    "id" : 9,
    "name" : "Betnavska - Knafelčeva",
    "address" : "Ulica Matije Murka 11",
    "lat" : 46.538211,
    "lon" : 15.635715
  },
  "10" : {
    "id" : 10,
    "name" : "Betnavska - Knafelčeva",
    "address" : "Knafelčeva ulica 49",
    "lat" : 46.537849,
    "lon" : 15.635186
  },
  "11" : {
    "id" : 11,
    "name" : "Betnavska - Metelkova",
    "address" : "Betnavska cesta 106",
    "lat" : 46.543233,
    "lon" : 15.638539
  },
  "12" : {
    "id" : 12,
    "name" : "Betnavska - Metelkova",
    "address" : "Betnavska cesta 79",
    "lat" : 46.542351,
    "lon" : 15.638437
  },
  "13" : {
    "id" : 13,
    "name" : "Betnavska - Žolgarjeva",
    "address" : "Betnavska cesta 8",
    "lat" : 46.550416,
    "lon" : 15.640798
  },
  "14" : {
    "id" : 14,
    "name" : "Betnavska - Žolgarjeva",
    "address" : "Betnavska cesta 5",
    "lat" : 46.550335,
    "lon" : 15.641006
  },
  "15" : {
    "id" : 15,
    "name" : "Betnavski grad",
    "address" : "Streliška cesta 150",
    "lat" : 46.529618,
    "lon" : 15.637662
  },
  "16" : {
    "id" : 16,
    "name" : "Betnavski grad",
    "address" : "Streliška cesta",
    "lat" : 46.529503,
    "lon" : 15.637461
  },
  "17" : {
    "id" : 17,
    "name" : "Bezjakova",
    "address" : "Bezjakova ulica 75",
    "lat" : 46.541783,
    "lon" : 15.590336
  },
  "18" : {
    "id" : 18,
    "name" : "Bresternica",
    "address" : "Mariborska cesta 24",
    "lat" : 46.566056,
    "lon" : 15.571947
  },
  "19" : {
    "id" : 19,
    "name" : "Bresternica - pošta",
    "address" : "Na Gaj 2",
    "lat" : 46.566912,
    "lon" : 15.578258
  },
  "20" : {
    "id" : 20,
    "name" : "Bresternica - pošta",
    "address" : "Na Gaj 1",
    "lat" : 46.566852,
    "lon" : 15.578428
  },
  "21" : {
    "id" : 21,
    "name" : "Bresternica - odcep",
    "address" : "Celovška cesta",
    "lat" : 46.567723,
    "lon" : 15.584451
  },
  "22" : {
    "id" : 22,
    "name" : "Bresternica - odcep",
    "address" : "Celovška cesta",
    "lat" : 46.567599,
    "lon" : 15.585017
  },
  "23" : {
    "id" : 23,
    "name" : "Bresternica - rondo",
    "address" : "Celovška cesta",
    "lat" : 46.566738,
    "lon" : 15.578279
  },
  "24" : {
    "id" : 24,
    "name" : "Bresternica - rondo",
    "address" : "Celovška cesta",
    "lat" : 46.566701,
    "lon" : 15.57866
  },
  "25" : {
    "id" : 25,
    "name" : "Brezje",
    "address" : "Dupleška cesta 81",
    "lat" : 46.536185,
    "lon" : 15.688982
  },
  "26" : {
    "id" : 26,
    "name" : "Brezje",
    "address" : "Dupleška cesta 75",
    "lat" : 46.536515,
    "lon" : 15.688387
  },
  "27" : {
    "id" : 27,
    "name" : "Celestrina",
    "address" : "Celestrina 9c",
    "lat" : 46.555618,
    "lon" : 15.710577
  },
  "28" : {
    "id" : 28,
    "name" : "Celestrina",
    "address" : "Celestrina 7a",
    "lat" : 46.556035,
    "lon" : 15.711244
  },
  "29" : {
    "id" : 29,
    "name" : "Cesta v Rošpoh 115",
    "address" : "Cesta v Rošpoh 126",
    "lat" : 46.584169,
    "lon" : 15.615231
  },
  "30" : {
    "id" : 30,
    "name" : "Cesta v Rošpoh 115",
    "address" : "Cesta v Rošpoh 118",
    "lat" : 46.583887,
    "lon" : 15.615325
  },
  "31" : {
    "id" : 31,
    "name" : "Cesta v Rošpoh 65",
    "address" : "Cesta v Rošpoh 77",
    "lat" : 46.57899,
    "lon" : 15.613401
  },
  "32" : {
    "id" : 32,
    "name" : "Cesta v Rošpoh 65",
    "address" : "Cesta v Rošpoh 86",
    "lat" : 46.579404,
    "lon" : 15.613768
  },
  "33" : {
    "id" : 33,
    "name" : "Cesta XIV. divizije",
    "address" : "Cesta XIV. divizije 108",
    "lat" : 46.544261,
    "lon" : 15.677811
  },
  "34" : {
    "id" : 34,
    "name" : "Cesta XIV. divizije",
    "address" : "Cesta XIV. divizije 101",
    "lat" : 46.544875,
    "lon" : 15.676494
  },
  "35" : {
    "id" : 35,
    "name" : "Čolnarna",
    "address" : "Celovška cesta",
    "lat" : 46.568112,
    "lon" : 15.592015
  },
  "36" : {
    "id" : 36,
    "name" : "Čolnarna",
    "address" : "Celovška cesta",
    "lat" : 46.568481,
    "lon" : 15.593426
  },
  "37" : {
    "id" : 37,
    "name" : "Črnogorska ul. 23",
    "address" : "Črnogorska ulica 21",
    "lat" : 46.545622,
    "lon" : 15.656589
  },
  "38" : {
    "id" : 38,
    "name" : "Črnogorska ul. 23",
    "address" : "Črnogorska ulica 20",
    "lat" : 46.545675,
    "lon" : 15.656455
  },
  "39" : {
    "id" : 39,
    "name" : "Čufarjeva - dom st. obč.",
    "address" : "Čufarjeva cesta 23",
    "lat" : 46.554577,
    "lon" : 15.672089
  },
  "40" : {
    "id" : 40,
    "name" : "Čufarjeva - dom st. obč.",
    "address" : "Čufarjeva cesta 23",
    "lat" : 46.554516,
    "lon" : 15.673517
  },
  "41" : {
    "id" : 41,
    "name" : "Čufarjeva - TVD Partizan",
    "address" : "Pobreška cesta",
    "lat" : 46.555136,
    "lon" : 15.665524
  },
  "42" : {
    "id" : 42,
    "name" : "Čufarjeva - TVD Partizan",
    "address" : "Čufarjeva cesta",
    "lat" : 46.554756,
    "lon" : 15.666739
  },
  "43" : {
    "id" : 43,
    "name" : "Dogoše",
    "address" : "Dupleška cesta",
    "lat" : 46.51468,
    "lon" : 15.712493
  },
  "44" : {
    "id" : 44,
    "name" : "Dogoše - Gasilski dom",
    "address" : "Dupleška cesta",
    "lat" : 46.523351,
    "lon" : 15.703928
  },
  "45" : {
    "id" : 45,
    "name" : "Dogoše - Gasilski dom",
    "address" : "Dupleška cesta 234",
    "lat" : 46.523742,
    "lon" : 15.703949
  },
  "46" : {
    "id" : 46,
    "name" : "Dogoše - polje",
    "address" : "Dupleška cesta",
    "lat" : 46.517439,
    "lon" : 15.708728
  },
  "47" : {
    "id" : 47,
    "name" : "Dogoše - polje",
    "address" : "Dupleška cesta",
    "lat" : 46.516745,
    "lon" : 15.709547
  },
  "48" : {
    "id" : 48,
    "name" : "Dogoška - vrtec",
    "address" : "Dogoška cesta 11",
    "lat" : 46.528314,
    "lon" : 15.675737
  },
  "49" : {
    "id" : 49,
    "name" : "Dogoška - vrtec",
    "address" : "Dogoška cesta",
    "lat" : 46.528173,
    "lon" : 15.6749475
  },
  "50" : {
    "id" : 50,
    "name" : "Dravograjska",
    "address" : "Borova vas",
    "lat" : 46.549182,
    "lon" : 15.621149
  },
  "51" : {
    "id" : 51,
    "name" : "Dravograjska",
    "address" : "Bergantova ulica 15",
    "lat" : 46.549942,
    "lon" : 15.621805
  },
  "52" : {
    "id" : 52,
    "name" : "Dravograjska - Poljane",
    "address" : "Ulica heroja Šercerja 40",
    "lat" : 46.552491,
    "lon" : 15.623049
  },
  "53" : {
    "id" : 53,
    "name" : "Dravograjska - Poljane",
    "address" : "Ulica heroja Šercerja 31",
    "lat" : 46.553664,
    "lon" : 15.624005
  },
  "54" : {
    "id" : 54,
    "name" : "Supernova",
    "address" : "Borova vas",
    "lat" : 46.546461,
    "lon" : 15.620128
  },
  "55" : {
    "id" : 55,
    "name" : "Dravograjska - Sokolska",
    "address" : "Ulica heroja Šercerja",
    "lat" : 46.557368,
    "lon" : 15.625449
  },
  "56" : {
    "id" : 56,
    "name" : "Dravograjska - Sokolska",
    "address" : "Ulica heroja Šercerja",
    "lat" : 46.557532,
    "lon" : 15.624998
  },
  "57" : {
    "id" : 57,
    "name" : "Dupleška - Jarčeva",
    "address" : "Dupleška cesta 131",
    "lat" : 46.532164,
    "lon" : 15.694953
  },
  "58" : {
    "id" : 58,
    "name" : "Dupleška - Jarčeva",
    "address" : "Dupleška cesta 124",
    "lat" : 46.532254,
    "lon" : 15.694671
  },
  "59" : {
    "id" : 59,
    "name" : "Dupleška - kanal",
    "address" : "Ulica Anice Černejeve",
    "lat" : 46.525898,
    "lon" : 15.700396
  },
  "60" : {
    "id" : 60,
    "name" : "Dupleška - kanal",
    "address" : "Dupleška cesta",
    "lat" : 46.526052,
    "lon" : 15.701311
  },
  "61" : {
    "id" : 61,
    "name" : "Dupleška - kanal",
    "address" : "Dupleška cesta 200",
    "lat" : 46.526891,
    "lon" : 15.700068
  },
  "62" : {
    "id" : 62,
    "name" : "Dupleška - Tezenska",
    "address" : "Dupleška cesta",
    "lat" : 46.541026,
    "lon" : 15.683486
  },
  "63" : {
    "id" : 63,
    "name" : "Dupleška - Tezenska",
    "address" : "Dupleška cesta 23",
    "lat" : 46.541218,
    "lon" : 15.683419
  },
  "64" : {
    "id" : 64,
    "name" : "Dupleška cesta 239",
    "address" : "Dupleška cesta - Signal d.o.o.",
    "lat" : 46.523932,
    "lon" : 15.704634
  },
  "65" : {
    "id" : 65,
    "name" : "Dupleška cesta 245",
    "address" : "Dupleška cesta 245 - kapelica",
    "lat" : 46.523413,
    "lon" : 15.705232
  },
  "66" : {
    "id" : 66,
    "name" : "Dupleška cesta 255",
    "address" : "Dupleška cesta 255 - market",
    "lat" : 46.521559,
    "lon" : 15.705513
  },
  "67" : {
    "id" : 67,
    "name" : "Dvorana Tabor - Gorkega",
    "address" : "Gorkega ulica 42",
    "lat" : 46.549492,
    "lon" : 15.637156
  },
  "68" : {
    "id" : 68,
    "name" : "Dvorana Tabor - Koresova",
    "address" : "Koresova ulica 5",
    "lat" : 46.549854,
    "lon" : 15.636699
  },
  "69" : {
    "id" : 69,
    "name" : "Dvorana Tabor - Koresova",
    "address" : "Koresova ulica 4",
    "lat" : 46.549942,
    "lon" : 15.636722
  },
  "70" : {
    "id" : 70,
    "name" : "Engelsova - Šarhova",
    "address" : "Engelsova ulica 14",
    "lat" : 46.549346,
    "lon" : 15.629735
  },
  "71" : {
    "id" : 71,
    "name" : "Engelsova - Šarhova",
    "address" : "Engelsova ulica 16",
    "lat" : 46.548919,
    "lon" : 15.628775
  },
  "72" : {
    "id" : 72,
    "name" : "Engelsova - vojašnica",
    "address" : "Engelsova ulica 42",
    "lat" : 46.546828,
    "lon" : 15.624751
  },
  "73" : {
    "id" : 73,
    "name" : "Engelsova - vojašnica",
    "address" : "Engelsova ulica",
    "lat" : 46.547295,
    "lon" : 15.625758
  },
  "74" : {
    "id" : 74,
    "name" : "Erjavčeva",
    "address" : "Erjavčeva ulica",
    "lat" : 46.556453,
    "lon" : 15.610227
  },
  "75" : {
    "id" : 75,
    "name" : "Erjavčeva",
    "address" : "Erjavčeva ulica",
    "lat" : 46.555365,
    "lon" : 15.614664
  },
  "76" : {
    "id" : 76,
    "name" : "Erjavčeva - ZD",
    "address" : "Erjavčeva ulica 29",
    "lat" : 46.554109,
    "lon" : 15.619239
  },
  "77" : {
    "id" : 77,
    "name" : "Erjavčeva - ZD",
    "address" : "Erjavčeva ulica 43",
    "lat" : 46.554633,
    "lon" : 15.616999
  },
  "78" : {
    "id" : 78,
    "name" : "Europark",
    "address" : "Pobreška cesta",
    "lat" : 46.554487,
    "lon" : 15.651496
  },
  "79" : {
    "id" : 79,
    "name" : "Gaj nad Mariborom",
    "address" : "Gaj nad Mariborom 1",
    "lat" : 46.619008,
    "lon" : 15.565002
  },
  "80" : {
    "id" : 80,
    "name" : "Gaj nad MB - Šiker",
    "address" : "Šober 26a",
    "lat" : 46.611834,
    "lon" : 15.546949
  },
  "81" : {
    "id" : 81,
    "name" : "Gaj nad MB - Šiker",
    "address" : "Šober 26a",
    "lat" : 46.611832,
    "lon" : 15.546845
  },
  "82" : {
    "id" : 82,
    "name" : "Gaj nad MB - transform.",
    "address" : "Gaj nad Mariborom",
    "lat" : 46.616707,
    "lon" : 15.553091
  },
  "83" : {
    "id" : 83,
    "name" : "Gaj nad MB - transform.",
    "address" : "Gaj nad Mariborom",
    "lat" : 46.616856,
    "lon" : 15.553231
  },
  "84" : {
    "id" : 84,
    "name" : "Glavni trg - Elektro",
    "address" : "Vetrinjska ulica 2",
    "lat" : 46.557531,
    "lon" : 15.647755
  },
  "85" : {
    "id" : 85,
    "name" : "Glavni trg - Elektro",
    "address" : "Glavni trg 24",
    "lat" : 46.557378,
    "lon" : 15.646796
  },
  "86" : {
    "id" : 86,
    "name" : "Gorkega - Preradovičeva",
    "address" : "Gorkega ulica 30",
    "lat" : 46.55112,
    "lon" : 15.639839
  },
  "87" : {
    "id" : 87,
    "name" : "Gorkega - Preradovičeva",
    "address" : "Cesta zmage 9",
    "lat" : 46.550584,
    "lon" : 15.639119
  },
  "88" : {
    "id" : 88,
    "name" : "Univerzitetni kampus 1",
    "address" : "Gosposvetska cesta 86",
    "lat" : 46.562867,
    "lon" : 15.629161
  },
  "89" : {
    "id" : 89,
    "name" : "Univerzitetni kampus 1",
    "address" : "Gosposvetska cesta 71",
    "lat" : 46.562801,
    "lon" : 15.628989
  },
  "90" : {
    "id" : 90,
    "name" : "Tretja gimnazija",
    "address" : "Gosposvetska cesta 9",
    "lat" : 46.560622,
    "lon" : 15.640389
  },
  "91" : {
    "id" : 91,
    "name" : "Tretja gimnazija",
    "address" : "Gosposvetska cesta 4",
    "lat" : 46.560691,
    "lon" : 15.640481
  },
  "92" : {
    "id" : 92,
    "name" : "Gosposvetska - Kosarjeva",
    "address" : "Gosposvetska cesta 61",
    "lat" : 46.562366,
    "lon" : 15.631178
  },
  "93" : {
    "id" : 93,
    "name" : "Gosposvetska - Kosarjeva",
    "address" : "Gosposvetska cesta 36",
    "lat" : 46.561857,
    "lon" : 15.633332
  },
  "94" : {
    "id" : 94,
    "name" : "Gosposvetska - Vrbanska",
    "address" : "Gosposvetska cesta 20",
    "lat" : 46.561371,
    "lon" : 15.636204
  },
  "95" : {
    "id" : 95,
    "name" : "Gosposvetska - Vrbanska",
    "address" : "Gosposvetska cesta 29",
    "lat" : 46.561235,
    "lon" : 15.636851
  },
  "96" : {
    "id" : 96,
    "name" : "Greenwich",
    "address" : "Pobreška cesta",
    "lat" : 46.554504,
    "lon" : 15.659352
  },
  "97" : {
    "id" : 97,
    "name" : "Greenwich",
    "address" : "Pobreška cesta",
    "lat" : 46.554659,
    "lon" : 15.659808
  },
  "98" : {
    "id" : 98,
    "name" : "Gregorčičeva",
    "address" : "Trg generala Maistra 1",
    "lat" : 46.561213,
    "lon" : 15.649315
  },
  "99" : {
    "id" : 99,
    "name" : "Gregorčičeva - Gledališka",
    "address" : "Gregorčičeva ulica 29",
    "lat" : 46.561127,
    "lon" : 15.644101
  },
  "100" : {
    "id" : 100,
    "name" : "Grušova",
    "address" : "Ruperče 62",
    "lat" : 46.559594,
    "lon" : 15.747312
  },
  "101" : {
    "id" : 101,
    "name" : "Grušova 1",
    "address" : "Grušova 25",
    "lat" : 46.557164,
    "lon" : 15.745885
  },
  "102" : {
    "id" : 102,
    "name" : "Grušova 1",
    "address" : "Grušova 25",
    "lat" : 46.557053,
    "lon" : 15.745686
  },
  "103" : {
    "id" : 103,
    "name" : "Ilichova - Korbunova",
    "address" : "Ilichova ulica",
    "lat" : 46.548686,
    "lon" : 15.611855
  },
  "104" : {
    "id" : 104,
    "name" : "Ilichova - RTV center",
    "address" : "Ilichova ulica 33",
    "lat" : 46.546511,
    "lon" : 15.615005
  },
  "105" : {
    "id" : 105,
    "name" : "Kamnica - hipodrom",
    "address" : "Vrbanska cesta 81",
    "lat" : 46.573981,
    "lon" : 15.623151
  },
  "106" : {
    "id" : 106,
    "name" : "Kamnica - hipodrom",
    "address" : "Rošpoh - del 4a",
    "lat" : 46.574209,
    "lon" : 15.622491
  },
  "107" : {
    "id" : 107,
    "name" : "Kamnica - križišče",
    "address" : "Koroška cesta 210",
    "lat" : 46.571145,
    "lon" : 15.612604
  },
  "108" : {
    "id" : 108,
    "name" : "Kamnica - križišče",
    "address" : "Koroška cesta 203",
    "lat" : 46.571064,
    "lon" : 15.614065
  },
  "109" : {
    "id" : 109,
    "name" : "Kamnica - križišče",
    "address" : "Kobanska ulica",
    "lat" : 46.571625,
    "lon" : 15.613594
  },
  "110" : {
    "id" : 110,
    "name" : "Kamnica - pošta",
    "address" : "Kamniška graba",
    "lat" : 46.572481,
    "lon" : 15.612652
  },
  "111" : {
    "id" : 111,
    "name" : "Kamnica - šola",
    "address" : "Vrbanska cesta 96",
    "lat" : 46.573562,
    "lon" : 15.615887
  },
  "112" : {
    "id" : 112,
    "name" : "Kamnica - šola",
    "address" : "Vrbanska cesta 97",
    "lat" : 46.573495,
    "lon" : 15.617011
  },
  "113" : {
    "id" : 113,
    "name" : "Kamnica - trgovina",
    "address" : "Cesta v Rošpoh 31",
    "lat" : 46.573793,
    "lon" : 15.612425
  },
  "114" : {
    "id" : 114,
    "name" : "Kamnica - trgovina",
    "address" : "Cesta v Rošpoh 28",
    "lat" : 46.574042,
    "lon" : 15.612542
  },
  "115" : {
    "id" : 115,
    "name" : "Kardeljeva - Borštnikova",
    "address" : "Kardeljeva cesta 130",
    "lat" : 46.534392,
    "lon" : 15.630204
  },
  "116" : {
    "id" : 116,
    "name" : "Kardeljeva - Borštnikova",
    "address" : "Kardeljeva cesta 130",
    "lat" : 46.533681,
    "lon" : 15.629585
  },
  "117" : {
    "id" : 117,
    "name" : "Kardeljeva - Knafelčeva",
    "address" : "Kardeljeva cesta",
    "lat" : 46.538595,
    "lon" : 15.631963
  },
  "118" : {
    "id" : 118,
    "name" : "Kardeljeva - Knafelčeva",
    "address" : "Knafelčeva ulica 24",
    "lat" : 46.538949,
    "lon" : 15.632643
  },
  "119" : {
    "id" : 119,
    "name" : "Kardeljeva cesta 49",
    "address" : "Kardeljeva cesta 49",
    "lat" : 46.543928,
    "lon" : 15.634391
  },
  "120" : {
    "id" : 120,
    "name" : "Kavčičeva",
    "address" : "Kavčičeva ulica",
    "lat" : 46.526876,
    "lon" : 15.672361
  },
  "121" : {
    "id" : 121,
    "name" : "Kavčičeva",
    "address" : "Zolajeva ulica",
    "lat" : 46.527143,
    "lon" : 15.672036
  },
  "122" : {
    "id" : 122,
    "name" : "Kliček",
    "address" : "Ribniška ulica",
    "lat" : 46.568597,
    "lon" : 15.648833
  },
  "123" : {
    "id" : 123,
    "name" : "Kliček",
    "address" : "Ribniška ulica",
    "lat" : 46.568621,
    "lon" : 15.648721
  },
  "124" : {
    "id" : 124,
    "name" : "Knezar",
    "address" : "Ruperče 34c",
    "lat" : 46.554317,
    "lon" : 15.736326
  },
  "125" : {
    "id" : 125,
    "name" : "Knezar",
    "address" : "Ruperče",
    "lat" : 46.554546,
    "lon" : 15.736294
  },
  "126" : {
    "id" : 126,
    "name" : "Limbuška obvoznica",
    "address" : "",
    "lat" : 46.555541,
    "lon" : 15.604321
  },
  "127" : {
    "id" : 127,
    "name" : "Koroška - Pristan",
    "address" : "Koroška cesta 47",
    "lat" : 46.558804,
    "lon" : 15.637914
  },
  "128" : {
    "id" : 128,
    "name" : "Koroška - Poštna",
    "address" : "Koroška cesta 5",
    "lat" : 46.557619,
    "lon" : 15.643901
  },
  "129" : {
    "id" : 129,
    "name" : "Koroška - Poštna",
    "address" : "Koroška cesta 2",
    "lat" : 46.557637,
    "lon" : 15.644302
  },
  "130" : {
    "id" : 130,
    "name" : "Koroški veter",
    "address" : "Koroška cesta 57",
    "lat" : 46.559166,
    "lon" : 15.635392
  },
  "131" : {
    "id" : 131,
    "name" : "Koroški veter",
    "address" : "Koroška cesta 74",
    "lat" : 46.559293,
    "lon" : 15.635065
  },
  "132" : {
    "id" : 132,
    "name" : "Koroška - tržnica",
    "address" : "Koroška cesta 25",
    "lat" : 46.558211,
    "lon" : 15.64124
  },
  "133" : {
    "id" : 133,
    "name" : "Koroška vrata - Mirni zaliv",
    "address" : "Koroška cesta 98",
    "lat" : 46.560205,
    "lon" : 15.630971
  },
  "134" : {
    "id" : 134,
    "name" : "Koroška vrata - Mirni zaliv",
    "address" : "Koroška cesta 105a",
    "lat" : 46.560616,
    "lon" : 15.629859
  },
  "135" : {
    "id" : 135,
    "name" : "Koš. dol - Pod vinogradi",
    "address" : "Košaški dol 38",
    "lat" : 46.572788,
    "lon" : 15.659274
  },
  "136" : {
    "id" : 136,
    "name" : "Košaki - stiskalnica",
    "address" : "Na prehodu 19",
    "lat" : 46.578054,
    "lon" : 15.666996
  },
  "137" : {
    "id" : 137,
    "name" : "Košaški dol",
    "address" : "Košaški dol 116",
    "lat" : 46.576146,
    "lon" : 15.666803
  },
  "138" : {
    "id" : 138,
    "name" : "Košaški dol - V zavoju",
    "address" : "Košaški dol 73",
    "lat" : 46.574861,
    "lon" : 15.662986
  },
  "139" : {
    "id" : 139,
    "name" : "Kovačič",
    "address" : "Malečnik",
    "lat" : 46.556493,
    "lon" : 15.691105
  },
  "140" : {
    "id" : 140,
    "name" : "Kovačič",
    "address" : "Malečnik 149a",
    "lat" : 46.556431,
    "lon" : 15.691654
  },
  "141" : {
    "id" : 141,
    "name" : "Kraljeviča Marka ulica",
    "address" : "Kraljeviča Marka ulica 15",
    "lat" : 46.558651,
    "lon" : 15.664065
  },
  "142" : {
    "id" : 142,
    "name" : "Kraljeviča Marka ulica",
    "address" : "Kraljeviča Marka ulica14",
    "lat" : 46.558764,
    "lon" : 15.663918
  },
  "143" : {
    "id" : 143,
    "name" : "Krekova",
    "address" : "Livada 2",
    "lat" : 46.562017,
    "lon" : 15.643599
  },
  "144" : {
    "id" : 144,
    "name" : "Krekova - občina",
    "address" : "Razlagova ulica 1",
    "lat" : 46.562065,
    "lon" : 15.649602
  },
  "145" : {
    "id" : 145,
    "name" : "Kronaveter",
    "address" : "Ruperče 31",
    "lat" : 46.556601,
    "lon" : 15.733079
  },
  "146" : {
    "id" : 146,
    "name" : "Kronaveter",
    "address" : "Ruperče 30",
    "lat" : 46.556547,
    "lon" : 15.733096
  },
  "147" : {
    "id" : 147,
    "name" : "MČ Tezno",
    "address" : "Dogoška cesta 31",
    "lat" : 46.528448,
    "lon" : 15.679731
  },
  "148" : {
    "id" : 148,
    "name" : "MČ Tezno",
    "address" : "Dogoška cesta 31",
    "lat" : 46.527904,
    "lon" : 15.67982
  },
  "149" : {
    "id" : 149,
    "name" : "MČ Tezno",
    "address" : "Dogoška cesta 31",
    "lat" : 46.527886,
    "lon" : 15.681957
  },
  "150" : {
    "id" : 150,
    "name" : "Lackova - Mlada lipa",
    "address" : "Lackova cesta 78",
    "lat" : 46.540574,
    "lon" : 15.606969
  },
  "151" : {
    "id" : 151,
    "name" : "Lackova - Na gorco",
    "address" : "Lackova cesta 132",
    "lat" : 46.54564,
    "lon" : 15.600098
  },
  "152" : {
    "id" : 152,
    "name" : "Lackova - Stara lipa",
    "address" : "Lackova cesta 47",
    "lat" : 46.538493,
    "lon" : 15.611431
  },
  "153" : {
    "id" : 153,
    "name" : "Lackova - Stara lipa",
    "address" : "Lackova cesta 44",
    "lat" : 46.538361,
    "lon" : 15.612191
  },
  "154" : {
    "id" : 154,
    "name" : "Lesarska šola",
    "address" : "Lesarska ulica 2",
    "lat" : 46.562266,
    "lon" : 15.601788
  },
  "155" : {
    "id" : 155,
    "name" : "Lesjakova 1",
    "address" : "Lesjakova ulica 59",
    "lat" : 46.538239,
    "lon" : 15.588906
  },
  "156" : {
    "id" : 156,
    "name" : "Lesjakova 2",
    "address" : "Lesjakova ulica 35",
    "lat" : 46.537262,
    "lon" : 15.591816
  },
  "157" : {
    "id" : 157,
    "name" : "Limbuš",
    "address" : "Ob Blažovnici 47",
    "lat" : 46.553939,
    "lon" : 15.582293
  },
  "158" : {
    "id" : 158,
    "name" : "Limbuš",
    "address" : "Lackova cesta 269",
    "lat" : 46.553985,
    "lon" : 15.582052
  },
  "159" : {
    "id" : 159,
    "name" : "Limbuš - pošta",
    "address" : "Lackova cesta 213",
    "lat" : 46.550344,
    "lon" : 15.588568
  },
  "160" : {
    "id" : 160,
    "name" : "Limbuš - pošta",
    "address" : "Lackova cesta 216",
    "lat" : 46.550618,
    "lon" : 15.588177
  },
  "161" : {
    "id" : 161,
    "name" : "Limbuška - Lesarska",
    "address" : "Limbuška cesta 180",
    "lat" : 46.556424,
    "lon" : 15.602803
  },
  "162" : {
    "id" : 162,
    "name" : "Limbuška - Lesarska",
    "address" : "Limbuška cesta 180",
    "lat" : 46.556424,
    "lon" : 15.604549
  },
  "163" : {
    "id" : 163,
    "name" : "Limbuška - Pekrska",
    "address" : "Limbuška cesta 44",
    "lat" : 46.556562,
    "lon" : 15.620111
  },
  "164" : {
    "id" : 164,
    "name" : "Limbuška - Pekrska",
    "address" : "Limbuška cesta 27",
    "lat" : 46.556416,
    "lon" : 15.620624
  },
  "165" : {
    "id" : 165,
    "name" : "Limbuška - rondo",
    "address" : "Limbuška cesta 26",
    "lat" : 46.554951,
    "lon" : 15.583604
  },
  "166" : {
    "id" : 166,
    "name" : "Limbuška 47",
    "address" : "Limbuška cesta 74",
    "lat" : 46.557197,
    "lon" : 15.616584
  },
  "167" : {
    "id" : 167,
    "name" : "Limbuška 47",
    "address" : "Limbuška cesta 47",
    "lat" : 46.557069,
    "lon" : 15.616917
  },
  "168" : {
    "id" : 168,
    "name" : "Ljubljanska - Focheva",
    "address" : "Ljubljanska ulica 46",
    "lat" : 46.54502,
    "lon" : 15.643234
  },
  "169" : {
    "id" : 169,
    "name" : "Ljubljanska - Focheva",
    "address" : "Ljubljanska uklica 47",
    "lat" : 46.545074,
    "lon" : 15.643485
  },
  "170" : {
    "id" : 170,
    "name" : "Ljubljanska - II. gimn.",
    "address" : "Ljubljanska ulica 27b",
    "lat" : 46.548748,
    "lon" : 15.645491
  },
  "171" : {
    "id" : 171,
    "name" : "Ljubljanska - II. gimn.",
    "address" : "Ljubljanska ulica 23",
    "lat" : 46.549561,
    "lon" : 15.645558
  },
  "172" : {
    "id" : 172,
    "name" : "Ljubljanska - stolpnica",
    "address" : "Ljubljanska ulica 104",
    "lat" : 46.536635,
    "lon" : 15.637329
  },
  "173" : {
    "id" : 173,
    "name" : "Ljubljanska - stolpnica",
    "address" : "Ljubljanska ulica 100",
    "lat" : 46.537296,
    "lon" : 15.638018
  },
  "174" : {
    "id" : 174,
    "name" : "Ljubljanska - TC Mercator",
    "address" : "Ljubljanska ulica 88c",
    "lat" : 46.539467,
    "lon" : 15.639381
  },
  "175" : {
    "id" : 175,
    "name" : "Ljubljanska - TC Mercator",
    "address" : "Ljubljanska ulica 88a",
    "lat" : 46.540333,
    "lon" : 15.639733
  },
  "176" : {
    "id" : 176,
    "name" : "Ljubljanska ul. 140",
    "address" : "Ljubljanska ulica 138",
    "lat" : 46.534075,
    "lon" : 15.635127
  },
  "177" : {
    "id" : 177,
    "name" : "Ljubljanska ul. 140",
    "address" : "Ljubljanska ulica 140",
    "lat" : 46.533502,
    "lon" : 15.634789
  },
  "178" : {
    "id" : 178,
    "name" : "Lorber",
    "address" : "Malečnik",
    "lat" : 46.555131,
    "lon" : 15.697163
  },
  "179" : {
    "id" : 179,
    "name" : "Lorber",
    "address" : "Malečnik 47",
    "lat" : 46.555402,
    "lon" : 15.696661
  },
  "180" : {
    "id" : 180,
    "name" : "UKC - Pobreška",
    "address" : "Pobreška cesta 6",
    "lat" : 46.554578,
    "lon" : 15.646762
  },
  "181" : {
    "id" : 181,
    "name" : "UKC - Pobreška",
    "address" : "Pobreška cesta 8",
    "lat" : 46.554476,
    "lon" : 15.647181
  },
  "182" : {
    "id" : 182,
    "name" : "UKC - Magdalenski park",
    "address" : "Ulica Moše Pijada 8",
    "lat" : 46.552755,
    "lon" : 15.645782
  },
  "183" : {
    "id" : 183,
    "name" : "Oš Franca Rozmana Staneta",
    "address" : "Maistrova ulica 32",
    "lat" : 46.563044,
    "lon" : 15.654677
  },
  "184" : {
    "id" : 184,
    "name" : "Makedonska",
    "address" : "Makedonska ulica 35",
    "lat" : 46.542602,
    "lon" : 15.657619
  },
  "185" : {
    "id" : 185,
    "name" : "Makedonska",
    "address" : "Makedonska ulica 44",
    "lat" : 46.542353,
    "lon" : 15.657277
  },
  "186" : {
    "id" : 186,
    "name" : "Malečnik - odcep Trčova",
    "address" : "Malečnik 2",
    "lat" : 46.553079,
    "lon" : 15.705175
  },
  "187" : {
    "id" : 187,
    "name" : "Malečnik - odcep Trčova",
    "address" : "Malečnik",
    "lat" : 46.553011,
    "lon" : 15.705251
  },
  "188" : {
    "id" : 188,
    "name" : "Malečnik - odcep Trčova",
    "address" : "Celestrina 1",
    "lat" : 46.552997,
    "lon" : 15.705808
  },
  "189" : {
    "id" : 189,
    "name" : "Malečnik - trgovina",
    "address" : "Celestrina 2c",
    "lat" : 46.552428,
    "lon" : 15.708238
  },
  "190" : {
    "id" : 190,
    "name" : "Malečnik - trgovina",
    "address" : "Celestrina 2d",
    "lat" : 46.552497,
    "lon" : 15.708171
  },
  "191" : {
    "id" : 191,
    "name" : "Maribor - UKC",
    "address" : "Ljubljanska ulica 9a",
    "lat" : 46.553028,
    "lon" : 15.646453
  },
  "192" : {
    "id" : 192,
    "name" : "Avtobusna postaja",
    "address" : "Mlinska ulica 1, Glav. avtobusna post.v mestu Maribor.",
    "lat" : 46.560211,
    "lon" : 15.656321
  },
  "193" : {
    "id" : 193,
    "name" : "Mariborski otok",
    "address" : "Mariborski otok",
    "lat" : 46.568666,
    "lon" : 15.614559
  },
  "194" : {
    "id" : 194,
    "name" : "Mariborski otok - HE",
    "address" : "Celovška cesta 11",
    "lat" : 46.570163,
    "lon" : 15.600708
  },
  "195" : {
    "id" : 195,
    "name" : "Mariborski otok - HE",
    "address" : "Celovška cesta 11",
    "lat" : 46.570119,
    "lon" : 15.601352
  },
  "196" : {
    "id" : 196,
    "name" : "Marles",
    "address" : "Limbuška cesta 2",
    "lat" : 46.557844,
    "lon" : 15.596415
  },
  "197" : {
    "id" : 197,
    "name" : "Melje",
    "address" : "Meljska cesta 74",
    "lat" : 46.559758,
    "lon" : 15.668769
  },
  "198" : {
    "id" : 198,
    "name" : "Melje",
    "address" : "Meljska cesta",
    "lat" : 46.559977,
    "lon" : 15.66818
  },
  "199" : {
    "id" : 199,
    "name" : "Prlek",
    "address" : "Meljska cesta 16",
    "lat" : 46.560518,
    "lon" : 15.658035
  },
  "200" : {
    "id" : 200,
    "name" : "Prlek",
    "address" : "Meljska cesta 9",
    "lat" : 46.560667,
    "lon" : 15.657971
  },
  "201" : {
    "id" : 201,
    "name" : "Meljska - trgovina",
    "address" : "Meljska cesta 37",
    "lat" : 46.560634,
    "lon" : 15.663027
  },
  "202" : {
    "id" : 202,
    "name" : "Meljska - trgovina",
    "address" : "Meljska cesta 34",
    "lat" : 46.560514,
    "lon" : 15.662161
  },
  "203" : {
    "id" : 203,
    "name" : "Meljski hrib - most",
    "address" : "Malečnik 180",
    "lat" : 46.558419,
    "lon" : 15.681445
  },
  "204" : {
    "id" : 204,
    "name" : "Meljski hrib - most",
    "address" : "Malečnik 180",
    "lat" : 46.558068,
    "lon" : 15.682489
  },
  "205" : {
    "id" : 205,
    "name" : "Metava",
    "address" : "Metava 41",
    "lat" : 46.539722,
    "lon" : 15.732907
  },
  "206" : {
    "id" : 206,
    "name" : "Metava - Duplek, križišče",
    "address" : "Metava 77",
    "lat" : 46.534851,
    "lon" : 15.731278
  },
  "207" : {
    "id" : 207,
    "name" : "Metava - Duplek, križišče",
    "address" : "Metava 77",
    "lat" : 46.534931,
    "lon" : 15.731634
  },
  "208" : {
    "id" : 208,
    "name" : "Metava - odcep",
    "address" : "Ruperče 48",
    "lat" : 46.550199,
    "lon" : 15.740111
  },
  "209" : {
    "id" : 209,
    "name" : "Metava - odcep",
    "address" : "Ruperče 48",
    "lat" : 46.550119,
    "lon" : 15.740569
  },
  "210" : {
    "id" : 210,
    "name" : "Avtobusna postaja",
    "address" : "Mlinska ulica 1, Postajališče na Mlinski cesti",
    "lat" : 46.559605,
    "lon" : 15.655157
  },
  "211" : {
    "id" : 211,
    "name" : "Avtobusna postaja",
    "address" : "Mlinska ulica 1, Postajališče na Mlinski cesti",
    "lat" : 46.559717,
    "lon" : 15.65543
  },
  "212" : {
    "id" : 212,
    "name" : "Na Poljanah - Planet TUŠ",
    "address" : "Na Poljanah 10",
    "lat" : 46.551745,
    "lon" : 15.628734
  },
  "213" : {
    "id" : 213,
    "name" : "Na Poljanah - Planet TUŠ",
    "address" : "Na Poljanah 18",
    "lat" : 46.551892,
    "lon" : 15.628447
  },
  "214" : {
    "id" : 214,
    "name" : "Na prehodu",
    "address" : "Šentiljska cesta 112",
    "lat" : 46.581964,
    "lon" : 15.666229
  },
  "215" : {
    "id" : 215,
    "name" : "Nadvoz",
    "address" : "Košaški dol 4",
    "lat" : 46.568097,
    "lon" : 15.659518
  },
  "216" : {
    "id" : 216,
    "name" : "Nasipna - Cizerl",
    "address" : "Nasipna ulica 98",
    "lat" : 46.545437,
    "lon" : 15.652773
  },
  "217" : {
    "id" : 217,
    "name" : "Nasipna - Snaga",
    "address" : "Nasipna ulica 64",
    "lat" : 46.550584,
    "lon" : 15.656246
  },
  "218" : {
    "id" : 218,
    "name" : "Nasipna - Snaga",
    "address" : "Nasipna ulica",
    "lat" : 46.551359,
    "lon" : 15.656685
  },
  "219" : {
    "id" : 219,
    "name" : "Nebova I",
    "address" : "Celestrina 15",
    "lat" : 46.556982,
    "lon" : 15.720101
  },
  "220" : {
    "id" : 220,
    "name" : "Nebova I",
    "address" : "Celestrina 14a",
    "lat" : 46.557287,
    "lon" : 15.719664
  },
  "221" : {
    "id" : 221,
    "name" : "Nebova II",
    "address" : "Nebova 8",
    "lat" : 46.557705,
    "lon" : 15.725053
  },
  "222" : {
    "id" : 222,
    "name" : "Nebova II",
    "address" : "Nebova 5",
    "lat" : 46.557634,
    "lon" : 15.724085
  },
  "223" : {
    "id" : 223,
    "name" : "Nova vas 2",
    "address" : "Stantetova ulica 20",
    "lat" : 46.543159,
    "lon" : 15.624149
  },
  "224" : {
    "id" : 224,
    "name" : "Nova vas 2",
    "address" : "Majcigerjeva ulica 1",
    "lat" : 46.543812,
    "lon" : 15.624338
  },
  "225" : {
    "id" : 225,
    "name" : "Novak",
    "address" : "Metava 60",
    "lat" : 46.537613,
    "lon" : 15.724272
  },
  "226" : {
    "id" : 226,
    "name" : "Novak",
    "address" : "Metava 61",
    "lat" : 46.537569,
    "lon" : 15.724293
  },
  "227" : {
    "id" : 227,
    "name" : "OŠ borcev za severno mejo",
    "address" : "Borcev za severno mejo 5",
    "lat" : 46.547933,
    "lon" : 15.656879
  },
  "228" : {
    "id" : 228,
    "name" : "OŠ borcev za severno mejo",
    "address" : "Črnogorska ulica 4",
    "lat" : 46.547051,
    "lon" : 15.656968
  },
  "229" : {
    "id" : 229,
    "name" : "Ob ribniku",
    "address" : "Ob ribniku 42a",
    "lat" : 46.539426,
    "lon" : 15.598236
  },
  "230" : {
    "id" : 230,
    "name" : "Oreško nabrežje 1",
    "address" : "Oreško nabrežje - Mariborska Livarna d.d.",
    "lat" : 46.556492,
    "lon" : 15.662919
  },
  "231" : {
    "id" : 231,
    "name" : "Oreško nabrežje 1",
    "address" : "Oreško nabrežje 9",
    "lat" : 46.556392,
    "lon" : 15.66144
  },
  "232" : {
    "id" : 232,
    "name" : "Oreško nabrežje 2",
    "address" : "Oreško nabrežje - Košaki d.d.",
    "lat" : 46.556543,
    "lon" : 15.657013
  },
  "233" : {
    "id" : 233,
    "name" : "Oreško nabrežje 2",
    "address" : "Oreško nabrežje 9",
    "lat" : 46.556405,
    "lon" : 15.655834
  },
  "234" : {
    "id" : 234,
    "name" : "Orožnova ul. 9",
    "address" : "Orožnova ulica 9",
    "lat" : 46.558921,
    "lon" : 15.642451
  },
  "235" : {
    "id" : 235,
    "name" : "Osojnikova",
    "address" : "Shakespearova ulica 12",
    "lat" : 46.551776,
    "lon" : 15.664403
  },
  "236" : {
    "id" : 236,
    "name" : "Osojnikova - TVD Partizan",
    "address" : "Osojnikova ulica 25",
    "lat" : 46.554105,
    "lon" : 15.665806
  },
  "237" : {
    "id" : 237,
    "name" : "OŠ bratov Polančičev",
    "address" : "Prešernova ulica 30a",
    "lat" : 46.564297,
    "lon" : 15.651606
  },
  "238" : {
    "id" : 238,
    "name" : "OŠ Draga Kobala",
    "address" : "Cesta XIV. divizije 82",
    "lat" : 46.546161,
    "lon" : 15.672361
  },
  "239" : {
    "id" : 239,
    "name" : "OŠ Draga Kobala",
    "address" : "Cesta XIV. divizije 77",
    "lat" : 46.546369,
    "lon" : 15.672098
  },
  "240" : {
    "id" : 240,
    "name" : "OŠ Gustava Šiliha",
    "address" : "Majcigerjeva ulica 31",
    "lat" : 46.540425,
    "lon" : 15.621986
  },
  "241" : {
    "id" : 241,
    "name" : "OŠ Gustava Šiliha",
    "address" : "Ulica Pohorskega odreda",
    "lat" : 46.540432,
    "lon" : 15.622139
  },
  "242" : {
    "id" : 242,
    "name" : "OŠ Ludvika Pliberška",
    "address" : "Ulica Pohorskega odreda",
    "lat" : 46.537644,
    "lon" : 15.620457
  },
  "243" : {
    "id" : 243,
    "name" : "OŠ Ludvika Pliberška",
    "address" : "Ulica Pohorskega odreda",
    "lat" : 46.537643,
    "lon" : 15.620659
  },
  "244" : {
    "id" : 244,
    "name" : "OŠ Maksa Durjave",
    "address" : "Valvasorjeva ulica 12",
    "lat" : 46.553481,
    "lon" : 15.639959
  },
  "245" : {
    "id" : 245,
    "name" : "OŠ Maksa Durjave",
    "address" : "Valvasorjeva ulica 20",
    "lat" : 46.553781,
    "lon" : 15.639109
  },
  "246" : {
    "id" : 246,
    "name" : "OŠ Tabor 1",
    "address" : "Ulica Staneta Severja 12",
    "lat" : 46.536735,
    "lon" : 15.631356
  },
  "247" : {
    "id" : 247,
    "name" : "OŠ Tabor 1",
    "address" : "Kardeljeva cesta",
    "lat" : 46.536681,
    "lon" : 15.631055
  },
  "248" : {
    "id" : 248,
    "name" : "Pekre",
    "address" : "Lackova cesta 165",
    "lat" : 46.548544,
    "lon" : 15.594241
  },
  "249" : {
    "id" : 249,
    "name" : "Pekre",
    "address" : "Lackova cesta 162",
    "lat" : 46.548657,
    "lon" : 15.594099
  },
  "250" : {
    "id" : 250,
    "name" : "Pekre",
    "address" : "Bezjakova ulica 9",
    "lat" : 46.547527,
    "lon" : 15.593973
  },
  "251" : {
    "id" : 251,
    "name" : "Pobreška - Europark",
    "address" : "Pobreška cesta",
    "lat" : 46.55473,
    "lon" : 15.654307
  },
  "252" : {
    "id" : 252,
    "name" : "Pobreška - Europark",
    "address" : "Pobreška cesta 18",
    "lat" : 46.554732,
    "lon" : 15.653071
  },
  "253" : {
    "id" : 253,
    "name" : "Pohorska - Mlada lipa",
    "address" : "Pohorska ulica 11",
    "lat" : 46.539771,
    "lon" : 15.606151
  },
  "254" : {
    "id" : 254,
    "name" : "Pohorska - Mlada lipa",
    "address" : "Pohorska ulica 10",
    "lat" : 46.539628,
    "lon" : 15.605652
  },
  "255" : {
    "id" : 255,
    "name" : "Pohorska - pošta",
    "address" : "Pohorska ulica 29",
    "lat" : 46.537453,
    "lon" : 15.603781
  },
  "256" : {
    "id" : 256,
    "name" : "Pohorska - pošta",
    "address" : "Pohorska ulica 28",
    "lat" : 46.537233,
    "lon" : 15.603547
  },
  "257" : {
    "id" : 257,
    "name" : "Ptujska - Karantanska",
    "address" : "Ptujska cesta",
    "lat" : 46.518447,
    "lon" : 15.683862
  },
  "258" : {
    "id" : 258,
    "name" : "Karantanska",
    "address" : "Karantanska ulica",
    "lat" : 46.518501,
    "lon" : 15.687541
  },
  "259" : {
    "id" : 259,
    "name" : "Pokop. Dobrava - vhod",
    "address" : "Karantanska ulica",
    "lat" : 46.519089,
    "lon" : 15.692238
  },
  "260" : {
    "id" : 260,
    "name" : "Pokop. Dobrava - vhod",
    "address" : "Karantanska ulica",
    "lat" : 46.519089,
    "lon" : 15.691251
  },
  "261" : {
    "id" : 261,
    "name" : "Pokopališče Dobrava",
    "address" : "Karantanska ulica",
    "lat" : 46.519569,
    "lon" : 15.696044
  },
  "262" : {
    "id" : 262,
    "name" : "Pokopališče Pobrežje",
    "address" : "Cesta XIV. divizije",
    "lat" : 46.550152,
    "lon" : 15.665808
  },
  "263" : {
    "id" : 263,
    "name" : "Pokopališče Pobrežje",
    "address" : "Cesta XIV. divizije 40a",
    "lat" : 46.550902,
    "lon" : 15.664378
  },
  "264" : {
    "id" : 264,
    "name" : "Poštni center",
    "address" : "Zagrebška cesta 106",
    "lat" : 46.521946,
    "lon" : 15.671974
  },
  "265" : {
    "id" : 265,
    "name" : "PPC Tezno - črpalka  ",
    "address" : "Perhavčeva ulica 17",
    "lat" : 46.524584,
    "lon" : 15.667554
  },
  "266" : {
    "id" : 266,
    "name" : "PPC Tezno - črpalka  ",
    "address" : "Perhavčeva ulica 17",
    "lat" : 46.524641,
    "lon" : 15.667625
  },
  "267" : {
    "id" : 267,
    "name" : "PPC Tezno - Durabus",
    "address" : "Cesta k Tamu 20",
    "lat" : 46.526532,
    "lon" : 15.663948
  },
  "268" : {
    "id" : 268,
    "name" : "PPC Tezno - Durabus",
    "address" : "Cesta k Tamu",
    "lat" : 46.526253,
    "lon" : 15.664188
  },
  "269" : {
    "id" : 269,
    "name" : "PPC Tezno - NKBM",
    "address" : "Zagrebška cesta",
    "lat" : 46.521965,
    "lon" : 15.670191
  },
  "270" : {
    "id" : 270,
    "name" : "PPC Tezno - NKBM",
    "address" : "Zagrebška cesta 104a",
    "lat" : 46.521951,
    "lon" : 15.66984
  },
  "271" : {
    "id" : 271,
    "name" : "PPC Tezno - vhod",
    "address" : "Cesta k Tamu 6",
    "lat" : 46.527671,
    "lon" : 15.668314
  },
  "272" : {
    "id" : 272,
    "name" : "PPC Tezno - vhod",
    "address" : "Zagrebška cesta 86",
    "lat" : 46.527576,
    "lon" : 15.668854
  },
  "273" : {
    "id" : 273,
    "name" : "Prol. brigad - Ferkova",
    "address" : "Ferkova ullica 2",
    "lat" : 46.541641,
    "lon" : 15.640899
  },
  "274" : {
    "id" : 274,
    "name" : "Prol. brigad - Kardeljeva",
    "address" : "Cesta proletarskih brigard 55",
    "lat" : 46.542598,
    "lon" : 15.634665
  },
  "275" : {
    "id" : 275,
    "name" : "Prol. brigad - Kardeljeva",
    "address" : "Cesta proletarskih brigard 58",
    "lat" : 46.543219,
    "lon" : 15.632911
  },
  "276" : {
    "id" : 276,
    "name" : "Prol. brigad - lekarna",
    "address" : "Cesta proletarskih brigard 71",
    "lat" : 46.543982,
    "lon" : 15.629472
  },
  "277" : {
    "id" : 277,
    "name" : "Prol. brigad - lekarna",
    "address" : "Cesta proletarskih brigard",
    "lat" : 46.544323,
    "lon" : 15.628793
  },
  "278" : {
    "id" : 278,
    "name" : "Prol. brigad - Ljubljan.",
    "address" : "Dalmatinska ulica 45",
    "lat" : 46.541427,
    "lon" : 15.639756
  },
  "279" : {
    "id" : 279,
    "name" : "Prol. brigad - Ljubljan.",
    "address" : "Cesta proletarskih brigard",
    "lat" : 46.540904,
    "lon" : 15.641137
  },
  "280" : {
    "id" : 280,
    "name" : "Supernova",
    "address" : "Borova vas",
    "lat" : 46.545432,
    "lon" : 15.620348
  },
  "281" : {
    "id" : 281,
    "name" : "Prol. brigad - Tržaška",
    "address" : "Cesta proletarskih brigad 3",
    "lat" : 46.539799,
    "lon" : 15.646367
  },
  "282" : {
    "id" : 282,
    "name" : "Prol. brigad - vojašnica",
    "address" : "Stantetova ulica 20",
    "lat" : 46.544819,
    "lon" : 15.624193
  },
  "283" : {
    "id" : 283,
    "name" : "Prol. brigad - vojašnica",
    "address" : "Cesta proletarskih brigad 79",
    "lat" : 46.544607,
    "lon" : 15.625679
  },
  "284" : {
    "id" : 284,
    "name" : "Ptujska - Špelina",
    "address" : "Ptujska cesta 132",
    "lat" : 46.533582,
    "lon" : 15.664617
  },
  "285" : {
    "id" : 285,
    "name" : "Ptujska - Špelina",
    "address" : "Ptujska cesta 101",
    "lat" : 46.533447,
    "lon" : 15.665435
  },
  "286" : {
    "id" : 286,
    "name" : "Ptujska - hitra cesta",
    "address" : "Ptujska cesta 54",
    "lat" : 46.538628,
    "lon" : 15.654733
  },
  "287" : {
    "id" : 287,
    "name" : "Ptujska - hitra cesta",
    "address" : "Ptujska cesta",
    "lat" : 46.539627,
    "lon" : 15.654032
  },
  "288" : {
    "id" : 288,
    "name" : "Ptujska - Kovinar",
    "address" : "Ptujska cesta 80",
    "lat" : 46.5361004,
    "lon" : 15.659813
  },
  "289" : {
    "id" : 289,
    "name" : "Ptujska - Kovinar",
    "address" : "Ptujska cesta 61",
    "lat" : 46.536927,
    "lon" : 15.658624
  },
  "290" : {
    "id" : 290,
    "name" : "Ptujska - pošta",
    "address" : "Ptujska cesta 146",
    "lat" : 46.532011,
    "lon" : 15.667669
  },
  "291" : {
    "id" : 291,
    "name" : "Ptujska - pošta",
    "address" : "Ptujska cesta 129",
    "lat" : 46.531681,
    "lon" : 15.668748
  },
  "292" : {
    "id" : 292,
    "name" : "Ptujska - Cona Tezno",
    "address" : "Ptujska cesta 188",
    "lat" : 46.528505,
    "lon" : 15.672507
  },
  "293" : {
    "id" : 293,
    "name" : "Ptujska - Cona Tezno",
    "address" : "Ptujska cesta 149",
    "lat" : 46.529611,
    "lon" : 15.671695
  },
  "294" : {
    "id" : 294,
    "name" : "Ptujska - Tržaška",
    "address" : "Ptujska cesta",
    "lat" : 46.539701,
    "lon" : 15.648591
  },
  "295" : {
    "id" : 295,
    "name" : "Radvanjska - Antoličičeva",
    "address" : "Radvanjska cesta 121",
    "lat" : 46.537936,
    "lon" : 15.626869
  },
  "296" : {
    "id" : 296,
    "name" : "Radvanjska - Antoličičeva",
    "address" : "Radvanjska cesta 120",
    "lat" : 46.538366,
    "lon" : 15.627125
  },
  "297" : {
    "id" : 297,
    "name" : "Radvanjska - Borštnikova",
    "address" : "Borštnikova ulica 100",
    "lat" : 46.535775,
    "lon" : 15.625033
  },
  "298" : {
    "id" : 298,
    "name" : "Radvanjska - Borštnikova",
    "address" : "Borštnikova ulica 88",
    "lat" : 46.536279,
    "lon" : 15.625321
  },
  "299" : {
    "id" : 299,
    "name" : "Radvanjska - trgovina",
    "address" : "Radvanjska cesta 63",
    "lat" : 46.542801,
    "lon" : 15.631095
  },
  "300" : {
    "id" : 300,
    "name" : "Radvanjska - trgovina",
    "address" : "Radvanjska cesta 84",
    "lat" : 46.541651,
    "lon" : 15.629961
  },
  "301" : {
    "id" : 301,
    "name" : "Radvanjska - vojašnica",
    "address" : "Radvanjska cesta 30",
    "lat" : 46.545895,
    "lon" : 15.634183
  },
  "302" : {
    "id" : 302,
    "name" : "Radvanjska - vojašnica",
    "address" : "Radvanjska cesta 27",
    "lat" : 46.546526,
    "lon" : 15.635159
  },
  "303" : {
    "id" : 303,
    "name" : "Razlagova - EPF",
    "address" : "Razlagova ulica 25",
    "lat" : 46.562136,
    "lon" : 15.654084
  },
  "304" : {
    "id" : 304,
    "name" : "Razvanje",
    "address" : "Razvanjska cesta 81",
    "lat" : 46.515413,
    "lon" : 15.6356531
  },
  "305" : {
    "id" : 305,
    "name" : "Razvanje - GD",
    "address" : "Razvanjska cesta 59",
    "lat" : 46.517971,
    "lon" : 15.634457
  },
  "306" : {
    "id" : 306,
    "name" : "Razvanje - GD",
    "address" : "Razvanjska cesta 16",
    "lat" : 46.518901,
    "lon" : 15.634317
  },
  "307" : {
    "id" : 307,
    "name" : "Razvanje - vrtnarstvo",
    "address" : "Razvanjska cesta 12",
    "lat" : 46.521622,
    "lon" : 15.635317
  },
  "308" : {
    "id" : 308,
    "name" : "Razvanje - vrtnarstvo",
    "address" : "Keltska ulica 15",
    "lat" : 46.521791,
    "lon" : 15.635159
  },
  "309" : {
    "id" : 309,
    "name" : "Ribnik 1",
    "address" : "Za tremi ribniki 1",
    "lat" : 46.573695,
    "lon" : 15.644586
  },
  "310" : {
    "id" : 310,
    "name" : "Ribnik 1",
    "address" : "Za tremi ribniki 5",
    "lat" : 46.573789,
    "lon" : 15.644017
  },
  "311" : {
    "id" : 311,
    "name" : "Ribniško selo",
    "address" : "Terčeva ulica 56",
    "lat" : 46.576067,
    "lon" : 15.641971
  },
  "312" : {
    "id" : 312,
    "name" : "Rošpoh",
    "address" : "Rošpoh - del 94c",
    "lat" : 46.601692,
    "lon" : 15.621163
  },
  "313" : {
    "id" : 313,
    "name" : "Rošpoh - Hojnik",
    "address" : "Rošpoh - del 81",
    "lat" : 46.597751,
    "lon" : 15.619571
  },
  "314" : {
    "id" : 314,
    "name" : "Rošpoh - Hojnik",
    "address" : "Rošpoh - del 81",
    "lat" : 46.597776,
    "lon" : 15.619418
  },
  "315" : {
    "id" : 315,
    "name" : "Rošpoh - odcep Urban",
    "address" : "Cesta v Rošpoh 127",
    "lat" : 46.587338,
    "lon" : 15.616655
  },
  "316" : {
    "id" : 316,
    "name" : "Rošpoh - odcep Urban",
    "address" : "Cesta v Rošpoh 127",
    "lat" : 46.587004,
    "lon" : 15.616551
  },
  "317" : {
    "id" : 317,
    "name" : "Ruperče",
    "address" : "Nebova",
    "lat" : 46.560819,
    "lon" : 15.729387
  },
  "318" : {
    "id" : 318,
    "name" : "Ruperče",
    "address" : "Nebova",
    "lat" : 46.560761,
    "lon" : 15.729293
  },
  "319" : {
    "id" : 319,
    "name" : "Rušnikova žaga",
    "address" : "Šober 52b",
    "lat" : 46.590991,
    "lon" : 15.55646
  },
  "320" : {
    "id" : 320,
    "name" : "Rušnikova žaga",
    "address" : "Šober 52b",
    "lat" : 46.590903,
    "lon" : 15.556379
  },
  "321" : {
    "id" : 321,
    "name" : "Slomškov trg",
    "address" : "Slomškov trg 20",
    "lat" : 46.559323,
    "lon" : 15.645563
  },
  "322" : {
    "id" : 322,
    "name" : "Smetanova - Teh. fakul.",
    "address" : "Smetanova ulica 17",
    "lat" : 46.559391,
    "lon" : 15.640427
  },
  "323" : {
    "id" : 323,
    "name" : "Smolnikov mlin",
    "address" : "Šober",
    "lat" : 46.606638,
    "lon" : 15.551653
  },
  "324" : {
    "id" : 324,
    "name" : "Smolnikov mlin",
    "address" : "Šober",
    "lat" : 46.606682,
    "lon" : 15.551517
  },
  "325" : {
    "id" : 325,
    "name" : "Stadion Ljudski vrt",
    "address" : "Mladinska ulica 34",
    "lat" : 46.564015,
    "lon" : 15.639174
  },
  "326" : {
    "id" : 326,
    "name" : "Streliška - Ul. Poh. odr.",
    "address" : "Streliška cesta 14",
    "lat" : 46.536251,
    "lon" : 15.620385
  },
  "327" : {
    "id" : 327,
    "name" : "Streliška - Ul. Poh. odr.",
    "address" : "Streliška cesta 7a",
    "lat" : 46.536224,
    "lon" : 15.620682
  },
  "328" : {
    "id" : 328,
    "name" : "Strossmayerjeva",
    "address" : "Strossmayerjeva ulica 10",
    "lat" : 46.559725,
    "lon" : 15.641927
  },
  "329" : {
    "id" : 329,
    "name" : "Šentiljska - Hofer",
    "address" : "",
    "lat" : 46.586361,
    "lon" : 15.666012
  },
  "330" : {
    "id" : 330,
    "name" : "Studenci",
    "address" : "Limbuška cesta 130",
    "lat" : 46.556847,
    "lon" : 15.610385
  },
  "331" : {
    "id" : 331,
    "name" : "Studenci",
    "address" : "Limbuška cesta 85",
    "lat" : 46.556986,
    "lon" : 15.611228
  },
  "332" : {
    "id" : 332,
    "name" : "Svenškova ulica 40",
    "address" : "Svenškova ulica 27",
    "lat" : 46.527311,
    "lon" : 15.706298
  },
  "333" : {
    "id" : 333,
    "name" : "Svenškova ulica 40",
    "address" : "Svenškova ulica 40",
    "lat" : 46.528356,
    "lon" : 15.706277
  },
  "334" : {
    "id" : 334,
    "name" : "Šarhova",
    "address" : "Kalohova ulica 41",
    "lat" : 46.553252,
    "lon" : 15.617321
  },
  "335" : {
    "id" : 335,
    "name" : "Šarhova - pošta",
    "address" : "Šarhova ulica 48",
    "lat" : 46.551724,
    "lon" : 15.621286
  },
  "336" : {
    "id" : 336,
    "name" : "Šarhova - pošta",
    "address" : "Šarhova ulica 59a",
    "lat" : 46.551581,
    "lon" : 15.621506
  },
  "337" : {
    "id" : 337,
    "name" : "Šentiljska - Medved",
    "address" : "Šentiljska cesta 9",
    "lat" : 46.567076,
    "lon" : 15.659232
  },
  "338" : {
    "id" : 338,
    "name" : "Šentiljska - Medved",
    "address" : "Šentiljska cesta 11",
    "lat" : 46.567289,
    "lon" : 15.658896
  },
  "339" : {
    "id" : 339,
    "name" : "Šentiljska - Počehovska",
    "address" : "Šentiljska cesta 75",
    "lat" : 46.576391,
    "lon" : 15.657536
  },
  "340" : {
    "id" : 340,
    "name" : "Šentiljska - TMI Košaki",
    "address" : "Šentiljska cesta 35",
    "lat" : 46.570616,
    "lon" : 15.658075
  },
  "341" : {
    "id" : 341,
    "name" : "Šentiljska - veterinar",
    "address" : "Šentiljska cesta 109a",
    "lat" : 46.581046,
    "lon" : 15.662691
  },
  "342" : {
    "id" : 342,
    "name" : "Šober - dvor",
    "address" : "Šober 49",
    "lat" : 46.585389,
    "lon" : 15.568522
  },
  "343" : {
    "id" : 343,
    "name" : "Šober - dvor",
    "address" : "Srednje 3a",
    "lat" : 46.585282,
    "lon" : 15.568568
  },
  "344" : {
    "id" : 344,
    "name" : "Šober - Žunko",
    "address" : "Srednje 19",
    "lat" : 46.572741,
    "lon" : 15.568531
  },
  "345" : {
    "id" : 345,
    "name" : "Šober - Žunko",
    "address" : "Srednje 19",
    "lat" : 46.572307,
    "lon" : 15.56845
  },
  "346" : {
    "id" : 346,
    "name" : "Šubičeva - vrtec",
    "address" : "Šubičeva ulica 9",
    "lat" : 46.568791,
    "lon" : 15.657067
  },
  "347" : {
    "id" : 347,
    "name" : "UKC - Tabor",
    "address" : "Dvorakova ulica 12",
    "lat" : 46.553496,
    "lon" : 15.644225
  },
  "348" : {
    "id" : 348,
    "name" : "TC E'Leclerc",
    "address" : "Tržaška cesta",
    "lat" : 46.521225,
    "lon" : 15.651598
  },
  "349" : {
    "id" : 349,
    "name" : "Fontana",
    "address" : "Koroška cesta 172",
    "lat" : 46.56558,
    "lon" : 15.623574
  },
  "350" : {
    "id" : 350,
    "name" : "Fontana",
    "address" : "Gosposvetska cesta 114",
    "lat" : 46.564968,
    "lon" : 15.624263
  },
  "351" : {
    "id" : 351,
    "name" : "Šentiljska - Počehovska",
    "address" : "",
    "lat" : 46.57709,
    "lon" : 15.657794
  },
  "352" : {
    "id" : 352,
    "name" : "Tezenska Dobrava",
    "address" : "Dogoška cesta 79",
    "lat" : 46.526839,
    "lon" : 15.687001
  },
  "353" : {
    "id" : 353,
    "name" : "Tezno - dom st. občanov",
    "address" : "Panonska ulica 41",
    "lat" : 46.525556,
    "lon" : 15.678967
  },
  "354" : {
    "id" : 354,
    "name" : "Tezno - dom st. občanov",
    "address" : "Panonska ulica 49",
    "lat" : 46.525041,
    "lon" : 15.678189
  },
  "355" : {
    "id" : 355,
    "name" : "Titova - Nasipna",
    "address" : "Titova cesta 55",
    "lat" : 46.543712,
    "lon" : 15.649091
  },
  "356" : {
    "id" : 356,
    "name" : "Titova - Nasipna",
    "address" : "Titova cesta 50",
    "lat" : 46.544594,
    "lon" : 15.648782
  },
  "357" : {
    "id" : 357,
    "name" : "Tomšičev drevored",
    "address" : "Tomšičeva ulica 4",
    "lat" : 46.56561,
    "lon" : 15.650571
  },
  "358" : {
    "id" : 358,
    "name" : "City - zdravstveni dom",
    "address" : "Ulica talcev 9",
    "lat" : 46.559151,
    "lon" : 15.651256
  },
  "359" : {
    "id" : 359,
    "name" : "City - zdravstveni dom",
    "address" : "Titova cesta 4",
    "lat" : 46.558644,
    "lon" : 15.650901
  },
  "360" : {
    "id" : 360,
    "name" : "Trčova - Griček",
    "address" : "Trčova 272",
    "lat" : 46.539405,
    "lon" : 15.720482
  },
  "361" : {
    "id" : 361,
    "name" : "Trčova - Griček",
    "address" : "Trčova 272",
    "lat" : 46.539504,
    "lon" : 15.720569
  },
  "362" : {
    "id" : 362,
    "name" : "Trčova 31",
    "address" : "Trčova 84",
    "lat" : 46.54768,
    "lon" : 15.714955
  },
  "363" : {
    "id" : 363,
    "name" : "Trčova 31",
    "address" : "Trčova 76",
    "lat" : 46.547793,
    "lon" : 15.714933
  },
  "364" : {
    "id" : 364,
    "name" : "Trgovski center Merkur",
    "address" : "Ob jezgonu 52",
    "lat" : 46.51779,
    "lon" : 15.652969
  },
  "365" : {
    "id" : 365,
    "name" : "Tržaška - carinarnica",
    "address" : "Tržaška cesta 49",
    "lat" : 46.526461,
    "lon" : 15.648079
  },
  "366" : {
    "id" : 366,
    "name" : "Tržaška - carinarnica",
    "address" : "Tržaška cesta 49",
    "lat" : 46.526525,
    "lon" : 15.648251
  },
  "367" : {
    "id" : 367,
    "name" : "Tržaška - Ptujska",
    "address" : "Tržaška cesta 1",
    "lat" : 46.541329,
    "lon" : 15.648398
  },
  "368" : {
    "id" : 368,
    "name" : "Tržaška cesta - Bauhaus",
    "address" : "Tržaška cesta 69",
    "lat" : 46.519346,
    "lon" : 15.650705
  },
  "369" : {
    "id" : 369,
    "name" : "Tržaška cesta - Bauhaus",
    "address" : "Tržaška cesta 69",
    "lat" : 46.519863,
    "lon" : 15.650517
  },
  "370" : {
    "id" : 370,
    "name" : "Tržaška cesta - Lesnina",
    "address" : "Tržaška cesta 35",
    "lat" : 46.530275,
    "lon" : 15.646328
  },
  "371" : {
    "id" : 371,
    "name" : "Tržaška cesta - Lesnina",
    "address" : "Tržaška cesta 33",
    "lat" : 46.530925,
    "lon" : 15.645941
  },
  "372" : {
    "id" : 372,
    "name" : "Tržaška cesta - Rutar",
    "address" : "Tržaška cesta 67",
    "lat" : 46.521951,
    "lon" : 15.648881
  },
  "373" : {
    "id" : 373,
    "name" : "Tržaška cesta - Rutar",
    "address" : "Tržaška cesta 67",
    "lat" : 46.521465,
    "lon" : 15.648956
  },
  "374" : {
    "id" : 374,
    "name" : "Tržaška- Vodovodna",
    "address" : "Tržaška cesta",
    "lat" : 46.533331,
    "lon" : 15.646287
  },
  "375" : {
    "id" : 375,
    "name" : "Tržaška- Vodovodna",
    "address" : "Tržaška cesta",
    "lat" : 46.533114,
    "lon" : 15.646451
  },
  "376" : {
    "id" : 376,
    "name" : "Ul. Eve Lovše - Betnava",
    "address" : "Ul. Eve Lovše 18",
    "lat" : 46.537794,
    "lon" : 15.638796
  },
  "377" : {
    "id" : 377,
    "name" : "Ul. Eve Lovše - Betnava",
    "address" : "Ul. Eve Lovše 18",
    "lat" : 46.537525,
    "lon" : 15.639608
  },
  "378" : {
    "id" : 378,
    "name" : "Ul. Eve Lovše - Energet.",
    "address" : "Ul. Eve Lovše 27",
    "lat" : 46.535254,
    "lon" : 15.642749
  },
  "379" : {
    "id" : 379,
    "name" : "Ul. Eve Lovše - Energet.",
    "address" : "Ul. Eve Lovše 19",
    "lat" : 46.536107,
    "lon" : 15.641725
  },
  "380" : {
    "id" : 380,
    "name" : "Ul. Eve Lovše - Lidl",
    "address" : "Tržaška cesta 42",
    "lat" : 46.534288,
    "lon" : 15.644301
  },
  "381" : {
    "id" : 381,
    "name" : "Ul. Eve Lovše - Lidl",
    "address" : "Tržaška cesta 42",
    "lat" : 46.534833,
    "lon" : 15.643674
  },
  "382" : {
    "id" : 382,
    "name" : "Ul. Pariške komune",
    "address" : "Ulica Pariške komune 25",
    "lat" : 46.548834,
    "lon" : 15.641523
  },
  "383" : {
    "id" : 383,
    "name" : "Ul. Pariške komune",
    "address" : "Ulica Pariške komune 28",
    "lat" : 46.548726,
    "lon" : 15.641515
  },
  "384" : {
    "id" : 384,
    "name" : "Ul. V. Vlahovića - S31",
    "address" : "Ulica Veljka Vlahovića",
    "lat" : 46.551231,
    "lon" : 15.676799
  },
  "385" : {
    "id" : 385,
    "name" : "Ul. V. Vlahovića - S31",
    "address" : "Ulica Veljka Vlahovića 53",
    "lat" : 46.550802,
    "lon" : 15.676429
  },
  "386" : {
    "id" : 386,
    "name" : "Novo Pobrežje",
    "address" : "Ulica Veljka Vlahovića 25",
    "lat" : 46.548549,
    "lon" : 15.675437
  },
  "387" : {
    "id" : 387,
    "name" : "Novo Pobrežje",
    "address" : "Ulica Veljka Vlahovića 21",
    "lat" : 46.547605,
    "lon" : 15.674821
  },
  "388" : {
    "id" : 388,
    "name" : "Ulica heroja Vojka",
    "address" : "Ulica heroja Vojka 29",
    "lat" : 46.544808,
    "lon" : 15.653853
  },
  "389" : {
    "id" : 389,
    "name" : "Valvasorjeva - Korenčan.",
    "address" : "Valvasorjeva ulica 80",
    "lat" : 46.556141,
    "lon" : 15.630354
  },
  "390" : {
    "id" : 390,
    "name" : "Valvasorjeva - Korenčan.",
    "address" : "Valvasorjeva ulica 70",
    "lat" : 46.555811,
    "lon" : 15.631387
  },
  "391" : {
    "id" : 391,
    "name" : "Valvasorjeva - Ruška",
    "address" : "Ruška cesta 112",
    "lat" : 46.556902,
    "lon" : 15.626748
  },
  "392" : {
    "id" : 392,
    "name" : "Valvasorjeva - Ruška",
    "address" : "Valvasorjeva ulica 75",
    "lat" : 46.556541,
    "lon" : 15.628123
  },
  "393" : {
    "id" : 393,
    "name" : "Mitnica",
    "address" : "Vrbanska cesta 26a",
    "lat" : 46.565929,
    "lon" : 15.633438
  },
  "394" : {
    "id" : 394,
    "name" : "Mitnica",
    "address" : "Vrbanska cesta 39",
    "lat" : 46.566171,
    "lon" : 15.632983
  },
  "395" : {
    "id" : 395,
    "name" : "Kamniški drevored",
    "address" : "Vrbanska cesta",
    "lat" : 46.570028,
    "lon" : 15.627758
  },
  "396" : {
    "id" : 396,
    "name" : "Kamniški drevored",
    "address" : "Vrbanska cesta",
    "lat" : 46.570316,
    "lon" : 15.627311
  },
  "397" : {
    "id" : 397,
    "name" : "Supernova",
    "address" : "Borova vas",
    "lat" : 46.544965,
    "lon" : 15.619133
  },
  "398" : {
    "id" : 398,
    "name" : "Vzpenjača",
    "address" : "Pohorska ulica 80",
    "lat" : 46.533221,
    "lon" : 15.599686
  },
  "399" : {
    "id" : 399,
    "name" : "Zagrebška - CSD",
    "address" : "Zagrebška cesta 85",
    "lat" : 46.531882,
    "lon" : 15.664025
  },
  "400" : {
    "id" : 400,
    "name" : "Zagrebška - CSD",
    "address" : "Zagrebška cesta 72",
    "lat" : 46.531271,
    "lon" : 15.665202
  },
  "401" : {
    "id" : 401,
    "name" : "Zagrebška - Kovinar",
    "address" : "Zagrebška cesta 28",
    "lat" : 46.534441,
    "lon" : 15.658472
  },
  "402" : {
    "id" : 402,
    "name" : "Zagrebška - Kovinar",
    "address" : "Zagrebška cesta 67",
    "lat" : 46.534721,
    "lon" : 15.658095
  },
  "403" : {
    "id" : 403,
    "name" : "Zg. Duplek",
    "address" : "Zgornji Duplek",
    "lat" : 46.515357,
    "lon" : 15.717538
  },
  "404" : {
    "id" : 404,
    "name" : "Zimica - odcep",
    "address" : "Ruperče 48",
    "lat" : 46.551326,
    "lon" : 15.743461
  },
  "405" : {
    "id" : 405,
    "name" : "Zimica - odcep",
    "address" : "Ruperče 49",
    "lat" : 46.551379,
    "lon" : 15.743682
  },
  "406" : {
    "id" : 406,
    "name" : "Zolajeva - TŠC",
    "address" : "Zolajeva ulica 12",
    "lat" : 46.525953,
    "lon" : 15.670998
  },
  "407" : {
    "id" : 407,
    "name" : "Zolajeva - TŠC",
    "address" : "",
    "lat" : 46.5259,
    "lon" : 15.670344
  },
  "408" : {
    "id" : 408,
    "name" : "Zrkovci",
    "address" : "Na terasi 5a",
    "lat" : 46.549582,
    "lon" : 15.700092
  },
  "409" : {
    "id" : 409,
    "name" : "Zrkovska - Gasilski dom",
    "address" : "Zrkovska cesta 102",
    "lat" : 46.554347,
    "lon" : 15.676824
  },
  "410" : {
    "id" : 410,
    "name" : "Zrkovska - Gasilski dom",
    "address" : "Zrkovska cesta",
    "lat" : 46.554606,
    "lon" : 15.676208
  },
  "411" : {
    "id" : 411,
    "name" : "Zrkovska - Gasilski dom",
    "address" : "Zrkovska cesta 102",
    "lat" : 46.554349,
    "lon" : 15.676661
  },
  "412" : {
    "id" : 412,
    "name" : "Zrkovska - Na Gorci 54",
    "address" : "Na Gorci 54",
    "lat" : 46.546572,
    "lon" : 15.705258
  },
  "413" : {
    "id" : 413,
    "name" : "Zrkovska - Na Gorci 54",
    "address" : "Na Gorci 54",
    "lat" : 46.546532,
    "lon" : 15.705432
  },
  "414" : {
    "id" : 414,
    "name" : "Zrkovska - Na Gorci 65",
    "address" : "Na Gorci 65",
    "lat" : 46.544222,
    "lon" : 15.706825
  },
  "415" : {
    "id" : 415,
    "name" : "Zrkovska - Na Gorci 65",
    "address" : "Na Gorci 65",
    "lat" : 46.544223,
    "lon" : 15.706709
  },
  "416" : {
    "id" : 416,
    "name" : "Zrkovska - Na terasi",
    "address" : "Zrkovska cesta 191a",
    "lat" : 46.549787,
    "lon" : 15.694231
  },
  "417" : {
    "id" : 417,
    "name" : "Zrkovska - Na terasi",
    "address" : "Na terasi 6",
    "lat" : 46.549674,
    "lon" : 15.694727
  },
  "418" : {
    "id" : 418,
    "name" : "Zrkovska - trgovina",
    "address" : "Zrkovska cesta 170",
    "lat" : 46.550712,
    "lon" : 15.686665
  },
  "419" : {
    "id" : 419,
    "name" : "Zrkovska - trgovina",
    "address" : "Zrkovska cesta 172",
    "lat" : 46.550678,
    "lon" : 15.68725
  },
  "420" : {
    "id" : 420,
    "name" : "Zrkovska cesta",
    "address" : "Zrkovska cesta 140",
    "lat" : 46.552191,
    "lon" : 15.682277
  },
  "421" : {
    "id" : 421,
    "name" : "Zrkovska cesta",
    "address" : "Zrkovska cesta 140",
    "lat" : 46.552228,
    "lon" : 15.682309
  },
  "422" : {
    "id" : 422,
    "name" : "Zvezna ulica",
    "address" : "Lesjakova ulica 35",
    "lat" : 46.537056,
    "lon" : 15.596948
  },
  "423" : {
    "id" : 423,
    "name" : "ŽP Maribor ",
    "address" : "Trg Borisa Kidriča 1",
    "lat" : 46.561852,
    "lon" : 15.656836
  },
  "424" : {
    "id" : 424,
    "name" : "ŽP Maribor ",
    "address" : "Partizanska cesta 50",
    "lat" : 46.561728,
    "lon" : 15.656944
  },
  "425" : {
    "id" : 425,
    "name" : "ŽP Studenci ",
    "address" : "Valvasorjeva ulica 40a",
    "lat" : 46.554505,
    "lon" : 15.635999
  },
  "426" : {
    "id" : 426,
    "name" : "ŽP Studenci",
    "address" : "Valvasorjeva ulica 19",
    "lat" : 46.554546,
    "lon" : 15.635401
  },
  "427" : {
    "id" : 427,
    "name" : "ŽP Tezno ",
    "address" : "Zagrebška cesta",
    "lat" : 46.539888,
    "lon" : 15.650973
  },
  "428" : {
    "id" : 428,
    "name" : "ŽP Tezno ",
    "address" : "Zagrebška cesta 2",
    "lat" : 46.539447,
    "lon" : 15.651313
  },
  "429" : {
    "id" : 429,
    "name" : "Kamenškova",
    "address" : "Kamenškova ulica 65",
    "lat" : 46.549534,
    "lon" : 15.611103
  },
  "430" : {
    "id" : 430,
    "name" : "Šentpetrska ulica",
    "address" : "Šentpetrska ulica 19",
    "lat" : 46.541465,
    "lon" : 15.686583
  },
  "431" : {
    "id" : 431,
    "name" : "Šentpetrska ulica",
    "address" : "Šentpetrska ulica 20",
    "lat" : 46.541369,
    "lon" : 15.686743
  },
  "432" : {
    "id" : 432,
    "name" : "Mladinska - Vrbanska",
    "address" : "Vrbanska cesta 20",
    "lat" : 46.565157,
    "lon" : 15.634537
  },
  "433" : {
    "id" : 433,
    "name" : "Turnerjeva",
    "address" : "Turnerjeva ulica 19",
    "lat" : 46.563217,
    "lon" : 15.630418
  },
  "434" : {
    "id" : 434,
    "name" : "Kamenškova",
    "address" : "",
    "lat" : 46.548891,
    "lon" : 15.611291
  },
  "435" : {
    "id" : 435,
    "name" : "MČ Pobrežje",
    "address" : "",
    "lat" : 46.548691,
    "lon" : 15.667511
  },
  "438" : {
    "id" : 438,
    "name" : "Korbunova",
    "address" : "Korbunova ul.",
    "lat" : 46.549111,
    "lon" : 15.611667
  },
  "439" : {
    "id" : 439,
    "name" : "Pekre",
    "address" : "Bezjakova ulica 9",
    "lat" : 46.547465,
    "lon" : 15.594024
  },
  "440" : {
    "id" : 440,
    "name" : "Pekre",
    "address" : "Bezjakova ulica 73",
    "lat" : 46.541639,
    "lon" : 15.590334
  },
  "441" : {
    "id" : 441,
    "name" : "Lesjakova 2",
    "address" : "Lesjakova ulica 37",
    "lat" : 46.537168,
    "lon" : 15.59225
  },
  "442" : {
    "id" : 442,
    "name" : "Zvezna ulica",
    "address" : "Zvezna ulica",
    "lat" : 46.5360899,
    "lon" : 15.5963853
  },
  "443" : {
    "id" : 443,
    "name" : "Ob ribniku",
    "address" : "Ob ribniku 40",
    "lat" : 46.539721,
    "lon" : 15.598561
  },
  "444" : {
    "id" : 444,
    "name" : "Bezjakova",
    "address" : "Bezjakova ulica 73",
    "lat" : 46.5403683,
    "lon" : 15.5894664
  },
  "445" : {
    "id" : 445,
    "name" : "Lackova - Na gorco",
    "address" : "Lackova cesta 128",
    "lat" : 46.545256,
    "lon" : 15.60047
  },
  "447" : {
    "id" : 447,
    "name" : "Lackova - Mlada lipa",
    "address" : "Lackova cesta 85",
    "lat" : 46.540938,
    "lon" : 15.606056
  },
  "448" : {
    "id" : 448,
    "name" : "Lackova - Ul. Jelenčevih",
    "address" : "Lackova cesta 142",
    "lat" : 46.547384,
    "lon" : 15.596941
  },
  "449" : {
    "id" : 449,
    "name" : "Lackova - Ul. Jelenčevih",
    "address" : "Lackova cesta 132",
    "lat" : 46.547277,
    "lon" : 15.59738
  },
  "450" : {
    "id" : 450,
    "name" : "Trčova 168",
    "address" : "Trčova 168",
    "lat" : 46.542408,
    "lon" : 15.719173
  },
  "451" : {
    "id" : 451,
    "name" : "Trčova 168",
    "address" : "Trčova 168",
    "lat" : 46.542435,
    "lon" : 15.719209
  },
  "452" : {
    "id" : 452,
    "name" : "Mladinska - Trubarjeva",
    "address" : "Mladinska 17",
    "lat" : 46.562953,
    "lon" : 15.643877
  },
  "453" : {
    "id" : 453,
    "name" : "Mladinska - muzej Maribor",
    "address" : "Mladinska ulica 2",
    "lat" : 46.563011,
    "lon" : 15.647843
  },
  "455" : {
    "id" : 455,
    "name" : "Mlinska AP 1",
    "address" : "Mlinska ulica 1",
    "lat" : 46.558371,
    "lon" : 15.655195
  },
  "456" : {
    "id" : 456,
    "name" : "Mlinska AP 2",
    "address" : "Mlinska ulica 1",
    "lat" : 46.560471,
    "lon" : 15.655661
  },
  "457" : {
    "id" : 457,
    "name" : "Maribor AP 1",
    "address" : "Mlinska ulica 2",
    "lat" : 46.55902,
    "lon" : 15.65598
  },
  "458" : {
    "id" : 458,
    "name" : "Mlinska AP 3",
    "address" : "Mlinska ulica 1",
    "lat" : 46.558366,
    "lon" : 15.654791
  },
  "460" : {
    "id" : 460,
    "name" : "Šentiljska - TMI Košaki",
    "address" : "",
    "lat" : 46.571096,
    "lon" : 15.658169
  },
  "461" : {
    "id" : 461,
    "name" : "Šentiljska - veterinar",
    "address" : "",
    "lat" : 46.581055,
    "lon" : 15.663103
  },
  "462" : {
    "id" : 462,
    "name" : "Botanični vrt",
    "address" : "Pivola 90a",
    "lat" : 46.507501,
    "lon" : 15.639463
  },
  "463" : {
    "id" : 463,
    "name" : "Lesjakova 1",
    "address" : "Lesjakova ulica 61",
    "lat" : 46.53841,
    "lon" : 15.588516
  },
  "464" : {
    "id" : 464,
    "name" : "Podružnica Osnovna šola Franceta Prešerna",
    "address" : "Razvanjska cesta 103",
    "lat" : 46.512917,
    "lon" : 15.635321
  },
  "465" : {
    "id" : 465,
    "name" : "Sp. Hoče šola",
    "address" : "",
    "lat" : 46.49793,
    "lon" : 15.64264
  },
  "466" : {
    "id" : 466,
    "name" : "Zg. Hoče polje",
    "address" : "",
    "lat" : 46.49428,
    "lon" : 15.63471
  },
  "468" : {
    "id" : 468,
    "name" : "Zg. Hoče",
    "address" : "",
    "lat" : 46.4926,
    "lon" : 15.62472
  },
  "469" : {
    "id" : 469,
    "name" : "Reka/Hočko Pohorje",
    "address" : "",
    "lat" : 46.49017,
    "lon" : 15.61237
  },
  "470" : {
    "id" : 470,
    "name" : "Polana/Slivniško Pohorje",
    "address" : "",
    "lat" : 46.485883,
    "lon" : 15.61003
  },
  "471" : {
    "id" : 471,
    "name" : "Hočko Pohorje g. Klinc",
    "address" : "",
    "lat" : 46.48608,
    "lon" : 15.58477
  },
  "472" : {
    "id" : 472,
    "name" : "Hočko Pohorje g. Gale",
    "address" : "",
    "lat" : 46.48649,
    "lon" : 15.57448
  },
  "473" : {
    "id" : 473,
    "name" : "PD Planinka Kop K",
    "address" : "",
    "lat" : 46.494464,
    "lon" : 15.5656
  },
  "474" : {
    "id" : 474,
    "name" : "Kapelica pri Kopu K",
    "address" : "",
    "lat" : 46.49463,
    "lon" : 15.56748
  },
  "475" : {
    "id" : 475,
    "name" : "Mariborska koča K",
    "address" : "",
    "lat" : 46.50198,
    "lon" : 15.562248
  },
  "476" : {
    "id" : 476,
    "name" : "Železnič.dom na Pohorju",
    "address" : "",
    "lat" : 46.50957,
    "lon" : 15.567512
  },
  "477" : {
    "id" : 477,
    "name" : "Hotel Bellevue Pohorje",
    "address" : "",
    "lat" : 46.516114,
    "lon" : 15.578504
  },
  "478" : {
    "id" : 478,
    "name" : "Železnič. dom na Pohorju",
    "address" : "",
    "lat" : 46.509623,
    "lon" : 15.567512
  },
  "479" : {
    "id" : 479,
    "name" : "Mariborska koča K",
    "address" : "",
    "lat" : 46.502018,
    "lon" : 15.562248
  },
  "480" : {
    "id" : 480,
    "name" : "Železničarski dom na Pohorju K",
    "address" : "",
    "lat" : 46.49829,
    "lon" : 15.550915
  },
  "481" : {
    "id" : 481,
    "name" : "PD Zarja k",
    "address" : "",
    "lat" : 46.4913,
    "lon" : 15.530584
  },
  "482" : {
    "id" : 482,
    "name" : "Aren na Pohorju Šmartno K",
    "address" : "",
    "lat" : 46.49395,
    "lon" : 15.510517
  },
  "483" : {
    "id" : 483,
    "name" : "Areh na Pohorju",
    "address" : "",
    "lat" : 46.496019,
    "lon" : 15.507325
  },
  "484" : {
    "id" : 484,
    "name" : "Koča Cojza",
    "address" : "",
    "lat" : 46.499058,
    "lon" : 15.49546
  },
  "485" : {
    "id" : 485,
    "name" : "Koča Cojzarica",
    "address" : "",
    "lat" : 46.50174,
    "lon" : 15.479831
  },
  "486" : {
    "id" : 486,
    "name" : "Martnica",
    "address" : "",
    "lat" : 46.52337,
    "lon" : 15.525794
  },
  "487" : {
    "id" : 487,
    "name" : "Ruše",
    "address" : "",
    "lat" : 46.537888,
    "lon" : 15.514645
  },
  "488" : {
    "id" : 488,
    "name" : "Martnica",
    "address" : "",
    "lat" : 46.523457,
    "lon" : 15.525786
  },
  "489" : {
    "id" : 489,
    "name" : "Koča Cojzarica",
    "address" : "",
    "lat" : 46.501673,
    "lon" : 15.479708
  },
  "490" : {
    "id" : 490,
    "name" : "Koča Cojza",
    "address" : "",
    "lat" : 46.499025,
    "lon" : 15.495475
  },
  "491" : {
    "id" : 491,
    "name" : "Areh na Pohorju Šmartno K",
    "address" : "",
    "lat" : 46.493929,
    "lon" : 15.510561
  },
  "492" : {
    "id" : 492,
    "name" : "PD Zarja k",
    "address" : "",
    "lat" : 46.49129,
    "lon" : 15.530584
  },
  "493" : {
    "id" : 493,
    "name" : "Kapelica pri Kopu K",
    "address" : "",
    "lat" : 46.494594,
    "lon" : 15.567592
  },
  "494" : {
    "id" : 494,
    "name" : "PD Planinka Kop K",
    "address" : "",
    "lat" : 46.494464,
    "lon" : 15.565564
  },
  "495" : {
    "id" : 495,
    "name" : "Hočko Pohorje g. Gale",
    "address" : "",
    "lat" : 46.486427,
    "lon" : 15.574482
  },
  "496" : {
    "id" : 496,
    "name" : "Hočko Pohorje g. Klinc",
    "address" : "",
    "lat" : 46.48586,
    "lon" : 15.58444
  },
  "497" : {
    "id" : 497,
    "name" : "Polana/Slivniško Pohorje",
    "address" : "",
    "lat" : 46.485485,
    "lon" : 15.61344
  },
  "498" : {
    "id" : 498,
    "name" : "Reka/Hočko Pohorje",
    "address" : "",
    "lat" : 46.489925,
    "lon" : 15.612843
  },
  "499" : {
    "id" : 499,
    "name" : "Zgornje Hoče",
    "address" : "",
    "lat" : 46.491269,
    "lon" : 15.622493
  },
  "500" : {
    "id" : 500,
    "name" : "Zgornje Hoče polje",
    "address" : "",
    "lat" : 46.494309,
    "lon" : 15.635402
  },
  "501" : {
    "id" : 501,
    "name" : "Spodnje Hoče šola",
    "address" : "",
    "lat" : 46.497646,
    "lon" : 15.642394
  },
  "527" : {
    "id" : 527,
    "name" : "Zrkovci - polje",
    "address" : "",
    "lat" : 46.536288,
    "lon" : 15.710143
  },
  "528" : {
    "id" : 528,
    "name" : "Zrkovci - polje",
    "address" : "",
    "lat" : 46.53641,
    "lon" : 15.71018
  },
  "530" : {
    "id" : 530,
    "name" : "Večer",
    "address" : "Ulica slovenske osamosvojitve",
    "lat" : 46.558603,
    "lon" : 15.649169
  },
  "531" : {
    "id" : 531,
    "name" : "Modna hiša",
    "address" : "Partizanska cesta",
    "lat" : 46.56037,
    "lon" : 15.65103
  },
  "532" : {
    "id" : 532,
    "name" : "Koroška - Feri",
    "address" : "Prežihova ulica 7",
    "lat" : 46.559572,
    "lon" : 15.63798
  },
  "533" : {
    "id" : 533,
    "name" : "P&R Koroški most",
    "address" : "Koroška cesta",
    "lat" : 46.561231,
    "lon" : 15.627061
  },
  "534" : {
    "id" : 534,
    "name" : "Univerzitetni kampus",
    "address" : "Koroška cesta 160",
    "lat" : 46.564271,
    "lon" : 15.623099
  },
  "535" : {
    "id" : 535,
    "name" : "Univerzitetni kampus",
    "address" : "Koroška cesta 160",
    "lat" : 46.564796,
    "lon" : 15.62318
  },
  "536" : {
    "id" : 536,
    "name" : "P&R Koroški most",
    "address" : "Koroška cesta",
    "lat" : 46.561176,
    "lon" : 15.627064
  },
  "537" : {
    "id" : 537,
    "name" : "Dvorana Tabor - Gorkega",
    "address" : "Radvanjska cesta 3",
    "lat" : 46.548779,
    "lon" : 15.636555
  },
  "538" : {
    "id" : 538,
    "name" : "Rošpoh - vrtovi",
    "address" : "",
    "lat" : 46.608633,
    "lon" : 15.626059
  },
  "539" : {
    "id" : 539,
    "name" : "Morski jarek - Kozjak",
    "address" : "",
    "lat" : 46.609465,
    "lon" : 15.632868
  },
  "540" : {
    "id" : 540,
    "name" : "Rošpoh - vrtovi",
    "address" : "",
    "lat" : 46.608627,
    "lon" : 15.625915
  },
  "541" : {
    "id" : 541,
    "name" : "Belokranjska ulica 10",
    "address" : "Belokranjska ulica 10",
    "lat" : 46.54384,
    "lon" : 15.65273
  },
  "542" : {
    "id" : 542,
    "name" : "Europark Titov most",
    "address" : "",
    "lat" : 46.554492,
    "lon" : 15.650439
  },
  "543" : {
    "id" : 543,
    "name" : "Tržaška - Ptujska",
    "address" : "",
    "lat" : 46.538819,
    "lon" : 15.64702
  },
  "544" : {
    "id" : 544,
    "name" : "Europark Titov most",
    "address" : "",
    "lat" : 46.554466,
    "lon" : 15.650609
  },
  "545" : {
    "id" : 545,
    "name" : "Morski jarek - Rošpoh",
    "address" : "",
    "lat" : 46.60928,
    "lon" : 15.63813
  },
  "546" : {
    "id" : 546,
    "name" : "Morski jarek - Rošpoh",
    "address" : "",
    "lat" : 46.60933,
    "lon" : 15.63847
  },
  "547" : {
    "id" : 547,
    "name" : "Morski jarek - Kozjak",
    "address" : "",
    "lat" : 46.609503,
    "lon" : 15.631009
  },
  "548" : {
    "id" : 548,
    "name" : "Gaj Gorjup - Ročič",
    "address" : "",
    "lat" : 46.60857,
    "lon" : 15.51951
  },
  "549" : {
    "id" : 549,
    "name" : "Hojnik - Hojč",
    "address" : "",
    "lat" : 46.6137,
    "lon" : 15.526
  },
  "550" : {
    "id" : 550,
    "name" : "Vdovič",
    "address" : "",
    "lat" : 46.615772,
    "lon" : 15.520358
  },
  "551" : {
    "id" : 551,
    "name" : "Šerbinek",
    "address" : "",
    "lat" : 46.619835,
    "lon" : 15.525343
  },
  "552" : {
    "id" : 552,
    "name" : "Pipuš - Žunko",
    "address" : "",
    "lat" : 46.621822,
    "lon" : 15.53804
  },
  "553" : {
    "id" : 553,
    "name" : "Robič",
    "address" : "",
    "lat" : 46.608463,
    "lon" : 15.56844
  },
  "554" : {
    "id" : 554,
    "name" : "Log",
    "address" : "",
    "lat" : 46.61788,
    "lon" : 15.57847
  },
  "555" : {
    "id" : 555,
    "name" : "Gert",
    "address" : "",
    "lat" : 46.617931,
    "lon" : 15.585551
  },
  "556" : {
    "id" : 556,
    "name" : "Hlade Križišče",
    "address" : "",
    "lat" : 46.61079,
    "lon" : 15.59614
  },
  "557" : {
    "id" : 557,
    "name" : "Krampl - Janč",
    "address" : "",
    "lat" : 46.606472,
    "lon" : 15.602551
  },
  "558" : {
    "id" : 558,
    "name" : "Hrastnik",
    "address" : "",
    "lat" : 46.60206,
    "lon" : 15.605136
  },
  "559" : {
    "id" : 559,
    "name" : "Lorber",
    "address" : "",
    "lat" : 46.598743,
    "lon" : 15.602089
  },
  "560" : {
    "id" : 560,
    "name" : "Pod Urbanom 15",
    "address" : "",
    "lat" : 46.597517,
    "lon" : 15.60728
  },
  "561" : {
    "id" : 561,
    "name" : "Tenis Hrastnik",
    "address" : "",
    "lat" : 46.59532,
    "lon" : 15.613774
  },
  "562" : {
    "id" : 562,
    "name" : "Oš Kamnica",
    "address" : "",
    "lat" : 46.573495,
    "lon" : 15.617011
  },
  "563" : {
    "id" : 563,
    "name" : "Oš Kamnica",
    "address" : "",
    "lat" : 46.573562,
    "lon" : 15.615887
  },
  "564" : {
    "id" : 564,
    "name" : "Šarhova",
    "address" : "Šarhova ulica 86",
    "lat" : 46.55322,
    "lon" : 15.6173
  },
  "565" : {
    "id" : 565,
    "name" : "Oš Tabor 1",
    "address" : "Ulica Staneta Severja",
    "lat" : 46.53669,
    "lon" : 15.63144
  },
  "574" : {
    "id" : 574,
    "name" : "Rošpoh - del 38a (Savič)",
    "address" : "",
    "lat" : 46.592156,
    "lon" : 15.639567
  },
  "575" : {
    "id" : 575,
    "name" : "Rošpoh - del 53",
    "address" : "",
    "lat" : 46.58471,
    "lon" : 15.63645
  },
  "576" : {
    "id" : 576,
    "name" : "Rošpoh - del odcep Vinarje",
    "address" : "",
    "lat" : 46.58258,
    "lon" : 15.636069
  },
  "577" : {
    "id" : 577,
    "name" : "Rošpoh - del 15-18",
    "address" : "",
    "lat" : 46.58135,
    "lon" : 15.631824
  },
  "578" : {
    "id" : 578,
    "name" : "Rošpoh - del 10",
    "address" : "",
    "lat" : 46.57968,
    "lon" : 15.6277
  },
  "579" : {
    "id" : 579,
    "name" : "Oš Malečnik",
    "address" : "",
    "lat" : 46.554811,
    "lon" : 15.700671
  },
  "580" : {
    "id" : 580,
    "name" : "Malečnik 23",
    "address" : "Malečnik 23",
    "lat" : 46.556428,
    "lon" : 15.70416
  },
  "581" : {
    "id" : 581,
    "name" : "Hrenca 11b",
    "address" : "Hrenca 11b",
    "lat" : 46.56237,
    "lon" : 15.70506
  },
  "582" : {
    "id" : 582,
    "name" : "Hrenca 14a",
    "address" : "Hrenca 14a",
    "lat" : 46.567559,
    "lon" : 15.704568
  },
  "583" : {
    "id" : 583,
    "name" : "Hrenca obračališče",
    "address" : "",
    "lat" : 46.563815,
    "lon" : 15.71877
  },
  "584" : {
    "id" : 584,
    "name" : "Bračko K",
    "address" : "",
    "lat" : 46.570213,
    "lon" : 15.702362
  },
  "585" : {
    "id" : 585,
    "name" : "Vodole Gorca K",
    "address" : "",
    "lat" : 46.572039,
    "lon" : 15.701743
  },
  "586" : {
    "id" : 586,
    "name" : "Markuš K",
    "address" : "",
    "lat" : 46.571704,
    "lon" : 15.695422
  },
  "587" : {
    "id" : 587,
    "name" : "Vodole 47",
    "address" : "Vodole 47",
    "lat" : 46.56895,
    "lon" : 15.700114
  },
  "588" : {
    "id" : 588,
    "name" : "Malečnik 247",
    "address" : "Malečnik 247",
    "lat" : 46.564084,
    "lon" : 15.700145
  },
  "589" : {
    "id" : 589,
    "name" : "Malečnik 240",
    "address" : "Malečnik 240",
    "lat" : 46.56338,
    "lon" : 15.695506
  },
  "590" : {
    "id" : 590,
    "name" : "Malečnik 235",
    "address" : "Malečnik 235",
    "lat" : 46.56134,
    "lon" : 15.692625
  },
  "591" : {
    "id" : 591,
    "name" : "Malečnik 200",
    "address" : "Malečnik 200",
    "lat" : 46.55791,
    "lon" : 15.689964
  },
  "593" : {
    "id" : 593,
    "name" : "Kmečki turizem Mak",
    "address" : "",
    "lat" : 46.572731,
    "lon" : 15.681898
  },
  "594" : {
    "id" : 594,
    "name" : "Stolni vrh 9",
    "address" : "",
    "lat" : 46.57287,
    "lon" : 15.67416
  },
  "595" : {
    "id" : 595,
    "name" : "Križišče Anderlič",
    "address" : "",
    "lat" : 46.572695,
    "lon" : 15.672769
  },
  "596" : {
    "id" : 596,
    "name" : "Meljski hrib 25",
    "address" : "",
    "lat" : 46.565175,
    "lon" : 15.66835
  },
  "597" : {
    "id" : 597,
    "name" : "Meljski dol K",
    "address" : "",
    "lat" : 46.566865,
    "lon" : 15.660609
  },
  "598" : {
    "id" : 598,
    "name" : "Vrtec Šubičeva",
    "address" : "",
    "lat" : 46.568755,
    "lon" : 15.657125
  },
  "599" : {
    "id" : 599,
    "name" : "Oš Franc Rozman Stane",
    "address" : "Kersnikova ulica 10",
    "lat" : 46.564307,
    "lon" : 15.654941
  },
  "600" : {
    "id" : 600,
    "name" : "Počehovska ulica 19",
    "address" : "",
    "lat" : 46.57741,
    "lon" : 15.65462
  },
  "601" : {
    "id" : 601,
    "name" : "Počehovska elektroinštalacije",
    "address" : "",
    "lat" : 46.579811,
    "lon" : 15.65281
  },
  "602" : {
    "id" : 602,
    "name" : "Počehova 33b",
    "address" : "Počehova 33b",
    "lat" : 46.582779,
    "lon" : 15.652578
  },
  "603" : {
    "id" : 603,
    "name" : "Počehova 59c",
    "address" : "Počehova 59c",
    "lat" : 46.59205,
    "lon" : 15.650655
  },
  "604" : {
    "id" : 604,
    "name" : "Počehova 64f",
    "address" : "Počehova 64f",
    "lat" : 46.592515,
    "lon" : 15.655686
  },
  "605" : {
    "id" : 605,
    "name" : "Počehova 62",
    "address" : "Počehova 62",
    "lat" : 46.591355,
    "lon" : 15.655575
  },
  "606" : {
    "id" : 606,
    "name" : "Vinotoč Rožman",
    "address" : "",
    "lat" : 46.588746,
    "lon" : 15.65557
  },
  "607" : {
    "id" : 607,
    "name" : "Oš Franc Rozman Stane - podružnica",
    "address" : "",
    "lat" : 46.57226,
    "lon" : 15.65794
  },
  "608" : {
    "id" : 608,
    "name" : "Oš Gustava Šiliha",
    "address" : "",
    "lat" : 46.541081,
    "lon" : 15.621261
  },
  "609" : {
    "id" : 609,
    "name" : "Trdinova 18",
    "address" : "Trdinova 18",
    "lat" : 46.562611,
    "lon" : 15.667151
  },
  "610" : {
    "id" : 610,
    "name" : "Prisojna 8a",
    "address" : "Prisojna 8a",
    "lat" : 46.564543,
    "lon" : 15.662697
  },
  "611" : {
    "id" : 611,
    "name" : "Center za sluh in govor Maribor - Vinarska 6",
    "address" : "Vinarska 6",
    "lat" : 46.565161,
    "lon" : 15.643051
  },
  "612" : {
    "id" : 612,
    "name" : "Center za sluh in govor Maribor - Gosposvetska 89",
    "address" : "Gosposvetska 89",
    "lat" : 46.564971,
    "lon" : 15.624301
  },
  "613" : {
    "id" : 613,
    "name" : "Bezjakova",
    "address" : "Bezjakova",
    "lat" : 46.542001,
    "lon" : 15.590246
  },
  "614" : {
    "id" : 614,
    "name" : "Hrastje 20a",
    "address" : "Hrastje 20a",
    "lat" : 46.540041,
    "lon" : 15.582721
  },
  "615" : {
    "id" : 615,
    "name" : "Cotičeva križišče",
    "address" : "Cotičeva križišče",
    "lat" : 46.538921,
    "lon" : 15.578881
  },
  "616" : {
    "id" : 616,
    "name" : "Cotičeva Stegenškova",
    "address" : "Cotičeva Stegenškova",
    "lat" : 46.546839,
    "lon" : 15.589334
  },
  "617" : {
    "id" : 617,
    "name" : "Hrastje 9",
    "address" : "Hrastje 9",
    "lat" : 46.547902,
    "lon" : 15.58951
  },
  "618" : {
    "id" : 618,
    "name" : "ulica 30 maja križišče",
    "address" : "ulica 30 maja križišče",
    "lat" : 46.549671,
    "lon" : 15.588751
  },
  "619" : {
    "id" : 619,
    "name" : "Hrastje 52b",
    "address" : "Hrastje 52b",
    "lat" : 46.549226,
    "lon" : 15.585889
  },
  "620" : {
    "id" : 620,
    "name" : "Oš Rada Robiča",
    "address" : "Oš Rada Robiča",
    "lat" : 46.556741,
    "lon" : 15.578241
  },
  "621" : {
    "id" : 621,
    "name" : "Meranovo obračališče",
    "address" : "Meranovo obračališče",
    "lat" : 46.535841,
    "lon" : 15.560961
  },
  "622" : {
    "id" : 622,
    "name" : "Vrhov dol 9",
    "address" : "Vrhov dol 9",
    "lat" : 46.537381,
    "lon" : 15.563971
  },
  "623" : {
    "id" : 623,
    "name" : "Vrhov dol - Ob Blažovnici",
    "address" : "Vrhov dol - Ob Blažovnici",
    "lat" : 46.539021,
    "lon" : 15.566381
  },
  "624" : {
    "id" : 624,
    "name" : "Vrhodolska pot križišče",
    "address" : "Vrhodolska pot križišče",
    "lat" : 46.544952,
    "lon" : 15.568626
  },
  "625" : {
    "id" : 625,
    "name" : "Gostišče Vnukec",
    "address" : "Gostišče Vnukec",
    "lat" : 46.547808,
    "lon" : 15.571499
  },
  "626" : {
    "id" : 626,
    "name" : "Ob Blažovici Biplast",
    "address" : "Ob Blažovici Biplast",
    "lat" : 46.550381,
    "lon" : 15.576041
  },
  "627" : {
    "id" : 627,
    "name" : "Ob Blažovici 56a",
    "address" : "Ob Blažovici 56a",
    "lat" : 46.552223,
    "lon" : 15.578468
  },
  "628" : {
    "id" : 628,
    "name" : "Kamniška Graba 6",
    "address" : "Kamniška Graba 6",
    "lat" : 46.573275,
    "lon" : 15.6107
  },
  "629" : {
    "id" : 629,
    "name" : "Kamniška Graba 50",
    "address" : "Kamniška Graba 50",
    "lat" : 46.575303,
    "lon" : 15.605232
  },
  "630" : {
    "id" : 630,
    "name" : "Kamniška Graba 80b",
    "address" : "Kamniška Graba 80b",
    "lat" : 46.58001,
    "lon" : 15.598889
  },
  "631" : {
    "id" : 631,
    "name" : "Kamniška Graba 101",
    "address" : "Kamniška Graba 101",
    "lat" : 46.582697,
    "lon" : 15.597376
  },
  "632" : {
    "id" : 632,
    "name" : "Kamniška Graba 141 - SOLNIK",
    "address" : "Kamniška Graba 141 - SOLNIK",
    "lat" : 46.586329,
    "lon" : 15.595967
  },
  "633" : {
    "id" : 633,
    "name" : "Glavni trg - Rotovž",
    "address" : "Glavni trg 1",
    "lat" : 46.557371,
    "lon" : 15.645791
  },
  "634" : {
    "id" : 634,
    "name" : "Glavni trg - Rotovž",
    "address" : "Glavni trg 1",
    "lat" : 46.557431,
    "lon" : 15.645841
  },
  "635" : {
    "id" : 635,
    "name" : "Tržnica GH Lent",
    "address" : "",
    "lat" : 46.558601,
    "lon" : 15.641611
  },
  "636" : {
    "id" : 636,
    "name" : "UKC - Europark",
    "address" : "",
    "lat" : 46.551291,
    "lon" : 15.652211
  },
  "637" : {
    "id" : 637,
    "name" : "Europark",
    "address" : "",
    "lat" : 46.554431,
    "lon" : 15.651911
  },
  "638" : {
    "id" : 638,
    "name" : "Pariške komune - Titova",
    "address" : "",
    "lat" : 46.548131,
    "lon" : 15.648891
  },
  "639" : {
    "id" : 639,
    "name" : "UKC - Titova",
    "address" : "",
    "lat" : 46.551541,
    "lon" : 15.650171
  },
  "640" : {
    "id" : 640,
    "name" : "UKC - Titova",
    "address" : "",
    "lat" : 46.551501,
    "lon" : 15.649901
  },
  "641" : {
    "id" : 641,
    "name" : "Pariške komune - Titova",
    "address" : "",
    "lat" : 46.548101,
    "lon" : 15.648651
  },
  "642" : {
    "id" : 642,
    "name" : "Zdravstveni dom Tezno",
    "address" : "",
    "lat" : 46.533936,
    "lon" : 15.675329
  },
  "643" : {
    "id" : 643,
    "name" : "TABOR - Jadranska",
    "address" : "",
    "lat" : 46.536917,
    "lon" : 15.643153
  },
  "644" : {
    "id" : 644,
    "name" : "Oš Franca Rozmana Staneta",
    "address" : "",
    "lat" : 46.563141,
    "lon" : 15.655271
  },
  "645" : {
    "id" : 645,
    "name" : "Zdravstveni dom Tezno",
    "address" : "",
    "lat" : 46.533271,
    "lon" : 15.674474
  },
  "646" : {
    "id" : 646,
    "name" : "Dom pod gorco",
    "address" : "",
    "lat" : 46.556241,
    "lon" : 15.611421
  },
  "647" : {
    "id" : 647,
    "name" : "Dom pod gorco",
    "address" : "",
    "lat" : 46.555861,
    "lon" : 15.612571
  },
  "648" : {
    "id" : 648,
    "name" : "Maribox",
    "address" : "",
    "lat" : 46.557201,
    "lon" : 15.653321
  },
  "649" : {
    "id" : 649,
    "name" : "Turnerjeva",
    "address" : "",
    "lat" : 46.562925,
    "lon" : 15.630317
  },
  "650" : {
    "id" : 650,
    "name" : "Cankarjeva",
    "address" : "",
    "lat" : 46.560961,
    "lon" : 15.653141
  },
  "651" : {
    "id" : 651,
    "name" : "Maribox",
    "address" : "",
    "lat" : 46.557144,
    "lon" : 15.652877
  },
  "652" : {
    "id" : 652,
    "name" : "Karantanska - kanal",
    "address" : "",
    "lat" : 46.520361,
    "lon" : 15.699541
  },
  "653" : {
    "id" : 653,
    "name" : "Karantanska - kanal",
    "address" : "",
    "lat" : 46.520311,
    "lon" : 15.6994
  },
  "654" : {
    "id" : 654,
    "name" : "MČ Pobrežje",
    "address" : "",
    "lat" : 46.549011,
    "lon" : 15.667261
  },
  "655" : {
    "id" : 655,
    "name" : "Mladinska - Vrbanska",
    "address" : "",
    "lat" : 46.564861,
    "lon" : 15.634671
  },
  "656" : {
    "id" : 656,
    "name" : "Vrbanska",
    "address" : "",
    "lat" : 46.56173,
    "lon" : 15.637112
  },
  "657" : {
    "id" : 657,
    "name" : "Teplyevo naselje",
    "address" : "",
    "lat" : 46.541091,
    "lon" : 15.602131
  },
  "658" : {
    "id" : 658,
    "name" : "Teplyevo naselje",
    "address" : "",
    "lat" : 46.541041,
    "lon" : 15.602081
  },
  "659" : {
    "id" : 659,
    "name" : "Vrbanska",
    "address" : "",
    "lat" : 46.562125,
    "lon" : 15.636867
  },
  "660" : {
    "id" : 660,
    "name" : "Supernova",
    "address" : "",
    "lat" : 46.545991,
    "lon" : 15.618611
  },
  "661" : {
    "id" : 661,
    "name" : "Ruperče 23",
    "address" : "",
    "lat" : 46.561871,
    "lon" : 15.740361
  },
  "662" : {
    "id" : 662,
    "name" : "Ruperče 21a",
    "address" : "",
    "lat" : 46.562731,
    "lon" : 15.741681
  },
  "663" : {
    "id" : 663,
    "name" : "Ruperče 16",
    "address" : "",
    "lat" : 46.566261,
    "lon" : 15.744811
  },
  "664" : {
    "id" : 664,
    "name" : "Ruperče 15a",
    "address" : "",
    "lat" : 46.566441,
    "lon" : 15.745541
  },
  "665" : {
    "id" : 665,
    "name" : "Ruperče 70d",
    "address" : "",
    "lat" : 46.565621,
    "lon" : 15.753091
  },
  "666" : {
    "id" : 666,
    "name" : "Na Poljanah - Prometna šola",
    "address" : "",
    "lat" : 46.552724,
    "lon" : 15.624305
  },
  "673" : {
    "id" : 673,
    "name" : "Limubška - Lesarska šola",
    "address" : "Limbuška - Lesarska šola",
    "lat" : 46.555661,
    "lon" : 15.602791
  },
  "674" : {
    "id" : 674,
    "name" : "Karantanska",
    "address" : "Karantanska",
    "lat" : 46.518471,
    "lon" : 15.686901
  },
  "675" : {
    "id" : 675,
    "name" : "Novo Pobrežje",
    "address" : "Novo Pobrežje",
    "lat" : 46.548301,
    "lon" : 15.674211
  },
  "676" : {
    "id" : 676,
    "name" : "Tabor Jadranska",
    "address" : "Tabor Jadranska",
    "lat" : 46.537261,
    "lon" : 15.643416
  },
  "677" : {
    "id" : 677,
    "name" : "Pekre",
    "address" : "Pekre",
    "lat" : 46.548661,
    "lon" : 15.595361
  },
  "678" : {
    "id" : 678,
    "name" : "Istrska",
    "address" : "Istrska",
    "lat" : 46.548701,
    "lon" : 15.669591
  },
  "679" : {
    "id" : 679,
    "name" : "Istrska",
    "address" : "Istrska",
    "lat" : 46.548521,
    "lon" : 15.668721
  },
  "680" : {
    "id" : 680,
    "name" : "Tržaška - Lidl",
    "address" : "Tržaška - Lidl",
    "lat" : 46.534411,
    "lon" : 15.646001
  },
  "681" : {
    "id" : 681,
    "name" : "Najstarejša trta",
    "address" : "Lent",
    "lat" : 46.556561,
    "lon" : 15.644031
  },
  "682" : {
    "id" : 682,
    "name" : "TIC",
    "address" : "TIC",
    "lat" : 46.560341,
    "lon" : 15.650661
  },
  "683" : {
    "id" : 683,
    "name" : "Vinag",
    "address" : "Vinag",
    "lat" : 46.561251,
    "lon" : 15.649261
  },
  "684" : {
    "id" : 684,
    "name" : "Stolnica",
    "address" : "Slomškov trg",
    "lat" : 46.559221,
    "lon" : 15.645551
  },
  "685" : {
    "id" : 685,
    "name" : "UGM",
    "address" : "UGM",
    "lat" : 46.558991,
    "lon" : 15.642171
  },
  "686" : {
    "id" : 686,
    "name" : "Trije ribniki",
    "address" : "Trije ribniki",
    "lat" : 46.568621,
    "lon" : 15.648721
  },
  "687" : {
    "id" : 687,
    "name" : "Meljski dol krožišče",
    "address" : "Meljski dol krožišče",
    "lat" : 46.569451,
    "lon" : 15.663711
  },
  "688" : {
    "id" : 688,
    "name" : "Gaj nad Mariborom 46",
    "address" : "Gaj nad Mariborom 46",
    "lat" : 46.619915,
    "lon" : 15.56852
  },
  "689" : {
    "id" : 689,
    "name" : "Gaj nad Mariborom 69",
    "address" : "Gaj nad Mariborom 69",
    "lat" : 46.622031,
    "lon" : 15.568981
  },
  "690" : {
    "id" : 690,
    "name" : "Šober križišče",
    "address" : "Šober K",
    "lat" : 46.617781,
    "lon" : 15.587091
  },
  "691" : {
    "id" : 691,
    "name" : "Rošpoh - del 231",
    "address" : "Rošpoh - del 231",
    "lat" : 46.612731,
    "lon" : 15.595821
  },
  "692" : {
    "id" : 692,
    "name" : "Akvarij - Terarij",
    "address" : "",
    "lat" : 46.565651,
    "lon" : 15.649795
  }
}